codpostal,coordx,coordy,direccion,fax,idcentrorc,latitud,localidad,longitud,mail,naturaleza,nombre_cen,objectid,refpar,shape,srs,telefono,tipo_centr,web,xcen,ycen
44570,732600,4536501,"P.º Alcañiz, 27",0,44005104,40.94654660,Calanda,-0.23667449,iescalanda@educa.aragon.es,Público,Valle Del Guadalope,7389, ,0101000020E6640000285305E3705B2641CA32C42D2D4E5141,25830,978 84 60 02,Instituto de Educación Secundaria (IES),http://iescalan.educa.aragon.es,732600.44,4536500.72
44400,691484,4457504,"Avda. Ibáñez Martín, S/N",0,44005116,40.24610121,Mora De Rubielos,-0.74873397,Iesmora@Educa.Aragob.Es,Público,Gúdar-Javalambre,7390, ,0101000020E664000020FDF6F5371A2541221FF4F007015141,25830,978 80 04 09,Instituto de Educación Secundaria (IES),http://iesmora.educa.aragon.es,691483.98,4457503.76
44392,640358,4527258,"Cl. San Miguel, 26",978731504,44005165,40.88437822,Poyo Del Cid (El),-1.33403370,crapoyocid@educa.aragon.es,Público,C.R.A. El Poyo Del Cid,7391, ,0101000020E6640000A01A2F7DCB8A2341DE93877926455141,25830,978 73 15 04,Colegio Público,http://crapoyoc.educa.aragon.es,640357.74,4527257.90
44132,650468,4447498,"Cl. Molino, 68",978784185,44005189,40.16437253,Libros,-1.23305676,cplibros@educa.aragon.es,Público,C.R.A. De Libros,7392, ,0101000020E664000070D71212C7D923415A643B7B42F75041,25830,978 78 41 85,Colegio Público,http://adigital.pntic.mec.es/~libros/,650467.54,4447497.93
44140,719871,4489043,"Avda. Maestrazgo, 5",0,44005190,40.52298054,Cantavieja,-0.40440886,iescantavieja@educa.aragon.es,Público,Sección Del I.E.S.  Segundo De Chomón,7393, ,0101000020E6640000F80FE977FEF725415817B7ADD41F5141,25830,964 18 51 10,Instituto de Educación Secundaria (IES),http://iescanta.educa.aragon.es,719871.23,4489042.71
44300,638991,4516807,"Cl.  Gonzalo De Liria, 2 - 2ª Plta.",0,44005219,40.79050719,Monreal Del Campo,-1.35258499, ,Público,Escuela  De Música,7394, ,0101000020E6640000E8FBA9711D802341B07268D9F13A5141,25830,978 86 33 73,Escuela Pública de Música y/o Danza, ,638990.72,4516807.40
44001,660726,4467582,"Cl. Mariano Muñoz Nogués, 11-13",0,44010011,40.34331618,Teruel,-1.10762433, ,Concertado,Escuela Sup. De Hostelería De Aragón,7395, ,0101000020E6640000208E7511EB292441D0D5566CDF0A5141,25830,978 60 01 35,Centro Privado de Formación Profesional Específica,http://www.educa.aragob.es/eshoster/,660725.53,4467581.69
44300,638991,4516807,"Cl. Gonzalo De Liria, 2",0,44010021,40.79050719,Monreal Del Campo,-1.35258499, ,Público,Extensión De E.O.I.,7396, ,0101000020E6640000E8FBA9711D802341B07268D9F13A5141,25830,978 62 05 57,Escuela Oficial de Idiomas (EOI), ,638990.72,4516807.40
44760,681296,4520478,"Cl.  Miguel Servet, 4",0,44010033,40.81530164,Utrillas,-0.85038875, ,Público,Extensión De E.O.I.,7397, ,0101000020E6640000603255309FCA2441482EFF65873E5141,25830,978 75 80 50,Escuela Oficial de Idiomas (EOI), ,681295.59,4520477.59
44200,643528,4531465,"Avda. Zaragoza, 42",0,44010045,40.92171221,Calamocha,-1.29544652, ,Público,Extensión De E.O.I.,7398, ,0101000020E664000010E02D3090A323413A014D4842495141,25830,978 73 01 37,Escuela Oficial de Idiomas (EOI), ,643528.09,4531465.13
44002,660794,4466854,"Cl. José Torán, 4",0,44010057,40.33675129,Teruel,-1.10700322, ,Privado,El Ensanche,7399, ,0101000020E664000078A52CC3732A2441F085C984290A5141,25830,978 62 03 61,Centro Privado de Educación Infantil, ,660793.88,4466854.07
50630,655839,4626263,"Cl.  Portalada, 22",0,50000163,41.77291379,Alagon,-1.12497244,Iesalagon@educa.aragon.es,Público,Conde  Aranda,7400, ,0101000020E6640000204A7BC3BE032441627FD9A9D5A55141,25830,976 61 60 80,Instituto de Educación Secundaria (IES),http://iesalago.educa.aragon.es,655839.38,4626262.65
50172,691136,4609728,"Cl. La Portaza, 50",976100135,50000291,41.61639436,Alfajarin,-0.70588459,Cpalfajarin@educa.aragon.es,Público,Brianda de Luna,7401, ,0101000020E6640000A8C64B37801725413E0AD71BB0955141,25830,976 10 01 35,Colegio Público,http://cpalfaja.educa.aragon.es,691136.11,4609728.44
50100,635918,4592725,"Avda.  Laviaga Castillo, 14",0,50000370,41.47461818,Almunia De Doña Godina (La),-1.37218055,cpalmunia@educa.aragon.es,Público,C.E.I.P. Nertóbriga,7402, ,0101000020E664000050A60A461B68234108CE195115855141,25830,976 81 21 99,Colegio Público,http://cpalmuni.educa.aragon.es,635917.64,4592725.27
50109,635423,4587105,"P.º  Ramón Y Cajal,  2",0,50000436,41.42410187,Alpartir,-1.37936029,cpalpartir@aragon.es,Público,Ramón Y Cajal,7403, ,0101000020E664000010D044583E642341AE25E45F987F5141,25830,976 81 30 01,Colegio Público, ,635423.17,4587105.50
50200,600896,4576081,"Pza. Del Mesón,  6",976842069,50000618,41.32989786,Ateca,-1.79429123,cpvpateca@educa.aragon.es,Público,Virgen De La Peana,7404, ,0101000020E6640000D06F5F477F562241F8C26442D4745141,25830,976 84 20 69,Colegio Público,www.educa.aragob.es/cpateca/,600895.64,4576081.04
50130,688356,4575539,"Cl. El Ferial, 6",976830316,50000722,41.30933657,Belchite,-0.74989536,colebelia@hotmail.com,Público,Belia,7405, ,0101000020E6640000A835CD1BC8012541B6847CDC4C745141,25830,976 83 03 16,Colegio Público,coledebelchite.blogspot.com,688356.05,4575539.45
50130,688228,4575291,"Cl. San Ramón,  21",0,50000734,41.30712711,Belchite,-0.75149840, ,Privado,San Rafael,7406, ,0101000020E664000038DF4F6DC800254102BC05AA0E745141,25830,976 83 00 59,Centro Privado de Educación Infantil, ,688228.21,4575290.66
50540,621738,4632176,"Cl. Ramón Y Cajal,  2",0,50000850,41.83212333,Borja,-1.53391078,cpcbborja@educaragon.org,Público,Campo De Borja,7407, ,0101000020E664000020C9E53F54F92241F01648109CAB5141,25830,976 86 72 17,Colegio Público,cpcbborja@educargon.org,621738.12,4632176.25
50540,621660,4632307,"Cl.  Amad, 22",0,50000862,41.83330917,Borja,-1.53482354,santanaborja@telefonica.net,Concertado,Santa Ana,7408, ,0101000020E6640000283A922BB8F82241925CFEA7BCAB5141,25830,976 86 71 40,Centro Privado con varias Enseñanzas de Régimen General, ,621660.09,4632306.62
50540,622111,4632361,"Cl. Capuchinos, 1",0,50000874,41.83372513,Borja,-1.52938547,iesborja@educa.aragon.es,Público,Juan De Lanuza,7409, ,0101000020E6640000104FAFB43DFC22410CB5A621CAAB5141,25830,976 86 73 68,Instituto de Educación Secundaria (IES),http://centros5.pntic.mec.es/ies.juan.de.lanuza,622110.85,4632360.53
50246,616921,4597832,"Cl. Cayo Vela, S/N",0,50000904,41.52359616,Brea De Aragon,-1.59862953,cpbrea@educa.aragon.es,Público,Diputación Provincial,7410, ,0101000020E664000008341176B2D322418A1F63F6118A5141,25830,976 82 43 33,Colegio Público,http://cpbrea.educa.aragon.es/index.html,616921.23,4597831.85
50300,613329,4576425,"Ctra. De Valencia,  S/N",0,50001064,41.33133931,Calatayud,-1.64568580,cpbgcalatayud@educa.aragon.es,Público,Baltasar Gracián,7411, ,0101000020E664000070567DEEA1B7224142F163242A755141,25830,976 88 16 52,Colegio Público,http://cpbgcala.educa.aragon.es,613328.97,4576424.57
50300,613949,4578388,"Cl. Santander-Mediterráneo, S/N",0,50001076,41.34893556,Calatayud,-1.63790602,cpfgcalatayud@educa.aragon.es,Público,Francisco De Goya,7412, ,0101000020E6640000B0B6629F7ABC2241CC7F481315775141,25830,976 88 26 96,Colegio Público,http://cpfgcala.educa.aragon.es,613949.31,4578388.30
44002,661780,4466020,"Cl. Los Tilos, 3",978600243,44004306,40.32904721,Teruel,-1.09560713,cplfteruel@educa.aragon.es,Público,La Fuenfresca,7413, ,0101000020E6640000D04D62B0283224412C8716E958095141,25830,978 60 03 01,Colegio Público,http//cplfteru.educa.aragon.es,661780.34,4466019.64
44002,660839,4466352,"Juez Villanueva, 1",0,44004318,40.33222124,Teruel,-1.10659747,eoiteruel@educa.aragon.es,Público,Escuela Oficial De Idiomas,7414, ,0101000020E6640000506B9A37CE2A244128A089FCAB095141,25830,978 62 05 57,Escuela Oficial de Idiomas (EOI),http://www.eoiteruel.com/,660839.11,4466351.95
44420,685176,4436571,"Cl. Ingeniero Piqueras, 1",0,44004483,40.05906025,Manzanera,-0.82885541,cramanzanera@educa.aragon.es,Público,C.R.A. Javalambre,7415, ,0101000020E6640000B8D1005EF0E824415A423EBC96EC5041,25830,978 78 18 13,Colegio Público,http://crajaval.educa.aragon.es/,685176.18,4436570.94
50018,676816,4617198,"CL. RAFAEL ESTEVE VILELLA, S/N",0,50018431,41.68693194,Zaragoza,-0.87542948, ,Privado,CUÉNTAME,7416, ,0101000020E6640000606DC5DEA0A72441CE195196FB9C5141,25830, ,Centro Privado de Educación Infantil, ,676816.44,4617198.35
44760,681105,4520452,"Cl. Miguel Servet, 3",0,44004550,40.81511193,Utrillas,-0.85265536,iesutrillas@educa.aragon.es,Público,Fernando Lázaro Carreter,7417, ,0101000020E6640000D0915CDE21C9244196900FF6803E5141,25830,978 75 80 50,Instituto de Educación Secundaria (IES),http://iesutril.educa.aragon.es,681104.93,4520451.84
44500,713763,4539378,"Avda. Escatrón, 1",0,44004562,40.97758754,Andorra,-0.45925709,cpmfrandorra@educa.aragon.es,Público,Manuel Franco Royo,7418, ,0101000020E66400006819E25845C82541EEEBC08DFC505141,25830,978 84 35 15,Colegio Público,http://cpmfrand.educa.aragon.es,713762.67,4539378.21
44500,714960,4539207,"Cl. Escuelas, 10",0,44004604,40.97573424,Andorra,-0.44510031, ,Público,Universidad Popular De Andorra,7419, ,0101000020E6640000B8D100BE9FD12541DE9387CDD1505141,25830,978 84 34 62,Escuela Pública de Música y/o Danza, ,714959.87,4539207.21
44410,716766,4470987,"Cl. El Vall, 16",0,44004616,40.36129592,Mosqueruela,-0.44718997,cramosqueruela@educa.aragon.es,Público,C.R.A. Maestrazgo Gudar,7420, ,0101000020E6640000686FF005BCDF2541C264AACC320E5141,25830,978 80 52 18,Colegio Público,www.educa.aragon.es/cralinar/,716766.01,4470987.20
44350,641179,4522161,"Pza. Escuelas, 3",0,44004689,40.83834192,Caminreal,-1.32545096,cracaminreal@educa.aragon.es,Público,C.R.A. Goya,7421, ,0101000020E6640000885AD33C35912341DE718A422C405141,25830,978 86 20 15,Colegio Público,http://cragoya.educa.aragon.es,641178.62,4522161.04
44140,719846,4489153,"Avda.  Maestrazgo, 3",0,44004690,40.52397534,Cantavieja,-0.40467027,cracantavieja@educa.aragon.es,Público,C.R.A. Alto Maestrazgo,7422, ,0101000020E6640000D0DEE0ABCBF7254110583920F01F5141,25830,964 18 51 29,Colegio Público,http://cracanta.educa.aragon.es,719845.84,4489152.50
44147,682275,4478398,"Cl. Basilio Muñoz, 20-29",0,44004719,40.43626856,Cedrillas,-0.85096370,cracedrillas@educa.Aragon.Es,Público,C.R.A Palmira Plá,7423, ,0101000020E6640000F0A7C66B46D22441341136946F155141,25830,978 77 41 62,Colegio Público,http://adigital.pntic.mec.es/cra.cedrillas/,682275.21,4478398.32
44547,702180,4544984,"Cl. Teruel, 10",978817133,44004720,41.03098889,Ariño,-0.59497469,craarino@educa.aragon.es,Público,C.R.A. Ariño-Alloza,7424, ,0101000020E6640000288716B9C76D254140A4DFE675565141,25830,978 81 71 33,Colegio Público,www.educa.aragon.es/craarino/weduca/,702179.86,4544983.61
44596,759011,4535016,"Cl Virgen De Gracia, 10",0,44004744,40.92524469,Fresneda (La),0.07605932,crafresneda@educa.aragon.es,Público,Cra. De La Fresneda,7425, ,0101000020E6640000A8CFD576C6292741A8E848E2B94C5141,25830,978 85 45 53,Colegio Público,http://e-ducativa.catedu.es/44004744/sitio/,759011.23,4535015.54
44750,677668,4523747,"Cl. Baja, 37",0,44004768,40.84552703,Martin Del Rio,-0.89243809,cramartinrio@educa.aragon.es,Público,C.R.A. De Martín Del Río,7426, ,0101000020E664000048D8F07448AE244112143FBEB8415141,25830,978 75 00 22,Colegio Público,WWW.EDUCA.ARAGOB.ES/cramarti,677668.23,4523746.97
44100,633048,4474395,"Cami. De Gea, S/N",978710052,44004793,40.40954571,Albarracin,-1.43195076,craalbarracin@educa.aragon.es,Público,C.R.A. De Albarracín,7427, ,0101000020E664000098559FABAF51234124287EB086115141,25830,978 71 00 52,Colegio Público,http://adigital.pntic.mec.es/~albarracin/,633047.84,4474394.76
44511,714351,4566228,"Avda. De La Estación, 2",0,44004801,41.21906141,Puebla De Hijar (La),-0.44291526,crapueblah@educa.aragon.es,Público,C.R.A. Bajo Martín,7428, ,0101000020E664000000D57849DDCC2541DC460318356B5141,25830,978 82 63 16,Colegio Público,http://www.catedu.es/e-ducativa/44004801,714350.64,4566228.38
44370,645302,4479445,"Cl. Sánchez Motos, 64",0,44004951,40.45297134,Cella,-1.28643576,cpeacella@educa.aragon.es,Público,C.P.E.P.A. De Cella,7429, ,0101000020E664000028A089706BB1234186EB512475165141,25830,978 65 02 56,Centro Público de Educación de Personas Adultas (Presenc,http://epacella.educa.aragon.es,645301.72,4479444.57
44300,638980,4516854,"Cl. Gonzalo De Liria, 4",0,44004963,40.79092592,Monreal Del Campo,-1.35270145, ,Público,Aula De Monreal Del Campo,7430, ,0101000020E6640000808CB90B0880234152499D6CFD3A5141,25830,978 86 45 15,Centro Público de Educación de Personas Adultas (Presenc, ,638980.02,4516853.70
44610,767968,4545228,"Avda. De Aragón,  2-4",0,44005062,41.01421723,Calaceite,0.18669866,cracalaceit@educa.aragon.es,Público,C.R.A. Matarranya,7431, ,0101000020E6640000B0E1E915C06F2741B437F816B3565141,25830,978 85 13 39,Colegio Público,http://www.educa.aragob.es/cramatar/index.html,767968.04,4545228.36
44360,642455,4491969,"Cl. España, 10",0,44005074,40.56624484,Santa Eulalia,-1.31717539,crastaeulalia@educa.aragon.es,Público,C.R.A. Cuna del Jiloca,7432, ,0101000020E664000018C05B202E9B2341C64B3729B0225141,25830,978 86 07 79,Colegio Público,http://crastaeu/educa.aragon.es,642455.06,4491968.64
50290,641846,4607606,"Cami. De La Estación, 13",0,50002019,41.60757286,Epila,-1.29769562,Montarron@Unefa.Org,Privado,E.F.A. Montarrón,7433, ,0101000020E66400003811365C6C9623415474249B9D935141,25830,976 60 30 79,Centro Privado de Formación Profesional Específica, ,641846.18,4607606.42
50007,676541,4611533,"Cl. Mornés, 14",0,50007017,41.63600258,Zaragoza,-0.88040467,mazaragoza@salesianas.net,Concertado,María  Auxiliadora,7434, ,0101000020E664000070C5FEF27AA5244156302A5973975141,25830,976 27 27 50,Centro Privado con varias Enseñanzas de Régimen General,http://www.mazaragoza.salesianas.net,676541.47,4611533.39
50006,676065,4611417,"Cl. Maestro Estremiana, 3 Y 5",0,50007042,41.63505834,Zaragoza,-0.88615968,lamilagrosaz@lamilagrosaz.e.telefonica.net,Concertado,La Milagrosa,7435, ,0101000020E6640000D89AE65DC1A124419418043256975141,25830,976 27 96 06,Centro Privado con varias Enseñanzas de Régimen General, ,676064.68,4611416.78
50009,674524,4610473,"P.º Reyes De Aragón, 21",0,50007066,41.62689807,Zaragoza,-0.90492185,Montearagon@Fomento.Edu,Privado,Montearagón,7436, ,0101000020E6640000E0141DC9B79524410CB5A6256A965141,25830,976 56 22 67,Centro Privado con varias Enseñanzas de Régimen General, ,674523.89,4610472.59
50300,613840,4578566,"Cl. Madre Rafols, 2",0,50001121,41.35055086,Calatayud,-1.63917703,secretaria@santaanacalatayud.com,Concertado,Santa Ana,7437, ,0101000020E664000010583954A0BB224176E09C7D41775141,25830,976 88 20 22,Centro Privado con varias Enseñanzas de Régimen General,http://www.santanacalatayud.com/,613840.16,4578565.96
50100,635471,4593217,"Cl. María Auxiliadora, 12",0,50000412,41.47912323,Almunia De Doña Godina (La),-1.37741807,secretaria.laalmunia@salesianos.edu,Concertado,Salesianos Laviaga-Castillo,7438, ,0101000020E6640000C07D1DD89D6423412675024E90855141,25830,976 81 24 20,Centro Privado de Educación Secundaria, ,635470.92,4593217.22
50300,613840,4579054,"P.º San Nicolás De Francia, 10",0,50001167,41.35494898,Calatayud,-1.63908510,ieslchcalatayud@educa.aragon.es,Público,IES Leonardo de Chabacier,7439, ,0101000020E6640000F8DBD761A0BB2241F2B05097BB775141,25830,976 88 10 15,Instituto de Educación Secundaria (IES),http://iesprcal.educa.aragon.es,613840.19,4579054.36
50400,648320,4577907,"Cl. Saint Pierre D' Olèron, S/N",0,50001301,41.33900609,Cariñena,-1.22734022,Cpcarinena@Educa.Aragon.Es,Público,Santo Cristo De Santiago,7440, ,0101000020E6640000989999F9FFC82341CAE53FB49C765141,25830,976 62 08 96,Colegio Público,http://cpcarine.educa.aragon.es,648319.99,4577906.82
50700,748286,4569131,"Pza. Compromiso, 12",0,50001350,41.23547782,Caspe,-0.03739419,cpcccaspe@educa.aragon.es,Público,Compromiso De Caspe,7441, ,0101000020E664000050AF9405FBD52641FC87F4C30A6E5141,25830,976 63 05 69,Colegio Público,http://cpccaspe.educa.aragon.es,748285.51,4569131.06
50700,747888,4569408,"Cl. Coso, 18",0,50001362,41.23808785,Caspe,-0.04201473,santaanacaspe@planalfa.es,Concertado,Santa Ana,7442, ,0101000020E664000098900FBAE0D2264142AD69EA4F6E5141,25830,976 63 03 96,Centro Privado con varias Enseñanzas de Régimen General, ,747888.36,4569407.66
50360,633474,4552675,"Cl. Mayor, 2",0,50001738,41.11440391,Daroca,-1.41022013,ehdaroca@educa.aragon.es,Público,Puerta De Zaragoza,7443, ,0101000020E664000058CA32A403552341E2E995BAF85D5141,25830,976 80 02 33,Residencia,http://ehdaroca.educa.aragon.es,633473.82,4552674.92
50600,653975,4665375,"Cl. Cervantes, 9",0,50001763,42.12536927,Ejea De Los Caballeros,-1.13716848,cpasejea@educa.aragon.es,Público,Cervantes,7444, ,0101000020E6640000A84E40B32DF523414E840DCF07CC5141,25830,976 66 15 11,Colegio Público,http://cpceejea.educa.aragon.es/index.html,653974.85,4665375.24
50600,653483,4664354,"Ctra. De Gallur A Sangüesa, S/N",0,50001829,42.11627434,Ejea De Los Caballeros,-1.14338275,boalares@efasdearagon.org,Concertado,E.F.A. Boalares,7445, ,0101000020E6640000F041CF4656F123410022FD8A08CB5141,25830,976 66 14 56,Centro Privado de Formación Profesional Específica,www.efasdearagon.org,653483.14,4664354.17
50600,654861,4665746,"Ctra. De Erla, S/N",0,50001830,42.12853310,Ejea De Los Caballeros,-1.12635041,iesrcejea@educaragon.es,Público,Reyes Católicos,7446, ,0101000020E6640000083411B61AFC2341BE30998664CC5141,25830,976 66 06 45,Instituto de Educación Secundaria (IES),http://iesrceje.educa.aragon.es,654861.36,4665746.10
50290,643623,4606465,"Cl. Ronda Diputación, S/N",0,50002007,41.59697782,Epila,-1.27666041,cpepila@educa.aragon.es,Público,Gaspar Remiro,7447, ,0101000020E6640000480C020B4DA42341E4141D3980925141,25830,976 60 39 90,Colegio Público,http://cpepila.educa.aragon.es/,643622.52,4606464.89
44003,660236,4468520,"Cl. Ciudad Escolar , S/N",0,44003259,40.35185916,Teruel,-1.11315303,ceealteruel@educa.aragon.es,Público,La Arboleda,7448, ,0101000020E664000060CC5D6B17262441B6A679FFC90B5141,25830,978 60 28 20,Colegio Público de Educación Especial, ,660235.71,4468519.99
44003,660038,4468671,"Cl. Leocadio Brun, 3",0,44003260,40.35325972,Teruel,-1.11544035,ehteruel@educa.aragon.es,Público,Escuela Hogar de Teruel,7449, ,0101000020E664000058423E488C242441065F98D4EF0B5141,25830,978 60 32 33,Residencia,http://ehteruel.educa.aragon.es,660038.14,4468671.32
44001,660712,4467572,"Pza. De La Catedral, 8",0,44003284,40.34323218,Teruel,-1.10778114,earteruel@educa.aragon.es,Público,Escuela De Arte De Teruel,7450, ,0101000020E6640000807346D4D029244160984C05DD0A5141,25830,978 60 26 35,Escuela de Arte,http://eateruel.educa.aragon.es,660712.41,4467572.08
44760,681787,4520228,"Cl. Pablo Gargallo, S/N",0,44003636,40.81295007,Utrillas,-0.84463396,cpvutrillas@educa.aragon.es,Público,Villa de Utrillas,7451, ,0101000020E6640000589FABCD76CE2441FE65F71C493E5141,25830,978 75 72 26,Colegio Público,http://cpimutri.educa.aragon.es,681787.40,4520228.45
44580,765806,4529463,"Avda. Madrid, 2",0,44003715,40.87312085,Valderrobres,0.15426740,cpvfvalderrobres@educa.arago.es,Público,Vicente Ferrer Ramos,7452, ,0101000020E6640000A045B693DC5E274186EB51BC4D475141,25830,978 85 06 55,Colegio Público,http://www.educa.arago.es/cpvalder,765806.29,4529462.94
44580,765794,4529687,"Cl. La Paz, 7",0,44003727,40.87514420,Valderrobres,0.15421190, ,Privado,María Inmaculada,7453, ,0101000020E664000058C1A804C35E2741460378DB85475141,25830,978 33 17 64,Centro Privado de Educación Infantil, ,765793.51,4529687.43
44200,643528,4531465,"Avda. Zaragoza, 42",0,44004045,40.92171221,Calamocha,-1.29544652,iescalamocha@educa.aragon.es,Público,Valle Del Jiloca,7454, ,0101000020E664000010E02D3090A323413A014D4842495141,25830,978 73 01 37,Instituto de Educación Secundaria (IES),http://iescalam.educa.aragon.es,643528.09,4531465.13
44140,719871,4489043,"Avda. Maestrazgo, 5",0,44004082,40.52298054,Cantavieja,-0.40440886,decant1@centros6.pntic.mec.es,Público,E.H. En C.R.I.E.T.,7455, ,0101000020E6640000F80FE977FEF725415817B7ADD41F5141,25830,964 18 50 27,Residencia,http://ehcanta.educa.aragon.es,719871.23,4489042.71
44003,660533,4468348,"Pza. Santa Teresa, 8",0,44004124,40.35025163,Teruel,-1.10970285,cpeateruel@educa.aragon.es,Público,Isabel De Segura,7456, ,0101000020E664000050F38E136928244112F241F39E0B5141,25830,978 60 78 81,Centro Público de Educación de Personas Adultas (Presenc,http://cpeateru.educa.aragon.es,660532.54,4468347.80
44500,714654,4539068,"Cl.  San  Isidro Labrador, 2",0,44004148,40.97455878,Andorra,-0.44878296,ceeandorra@educa.aragon.es,Público,Gloria Fuertes,7457, ,0101000020E6640000782D219F3BCF2541F46C56E9AE505141,25830,978 84 26 52,Colegio Público de Educación Especial,http://www.colegiogloriafuertes.es/,714653.81,4539067.65
44001,660641,4467652,"Cl. Temprado, 11",0,44004173,40.34396658,Teruel,-1.10860323,cpmteruel@educa.aragon.es,Público,Conservatorio Profesional de Música de Teruel,7458, ,0101000020E664000028A089B041292441ECC03907F10A5141,25830,978 60 57 14,Conservatorio de Música o Danza, ,660640.84,4467652.11
44530,713730,4560957,"Cl. Bajada De San Antonio, S/N",0,44004239,41.17178702,Hijar,-0.45214864,ieshijar@educa.aragon.es,Público,Pedro Laín Entralgo,7459, ,0101000020E6640000B89690CF04C82541F6B9DA360F665141,25830,978 82 08 76,Instituto de Educación Secundaria (IES),http://ieshijar.educa.aragon.es,713730.41,4560956.86
50006,675031,4610882," Cl. Rincón De Goya, S/N",0,50011537,41.63046877,Zaragoza,-0.89871526,ceergzaragoza@educa.aragon.es,Público,Rincón De Goya,7460, ,0101000020E664000038CD3B8EAE99244138894168D0965141,25830,976 25 55 45,Colegio Público de Educación Especial,http://ceergzar.educa.aragon.es,675031.28,4610881.63
50015,676292,4614407,"Cl. Manuel Marraco Ramón, 2",0,50011574,41.66192243,Zaragoza,-0.88254612,ifps@svalero.es,Privado,Cpa-Salduie,7461, ,0101000020E6640000801D38C788A32441C420B0BA419A5141,25830,976 52 27 41,Centro Privado de Formación Profesional Específica,http://www.cpasalduie.com,676292.39,4614406.92
50017,674219,4613263,"Cl. Barcelona, 17",0,50011653,41.65207996,Zaragoza,-0.90777299,Academiarubistein@Lotmail.Com,Privado,Rubinsteín,7462, ,0101000020E664000060DC4603559324419A081BB223995141,25830,976 33 23 46,Centro Privado de Música o Danza, ,674218.51,4613262.78
50015,677365,4617191,"Avda. Academia General Militar, 80",0,50006669,41.68674459,Zaragoza,-0.86883947,cristorey@escolapiosaragon.org,Concertado,Cristo Rey,7463, ,0101000020E6640000C0F528DCEAAB2441666666C6F99C5141,25830,976 51 44 22,Centro Privado con varias Enseñanzas de Régimen General,www.cristorey.escolapios.es,677420.16,4617172.16
50012,674332,4609461,"Cami. Fuente De La Junquera, 21",0,50006724,41.61783106,Zaragoza,-0.90752181, ,Privado,Liceo Europa,7464, ,0101000020E6640000E86A2B7637942441D26F5F276D955141,25830,976 56 50.00,Centro Privado con varias Enseñanzas de Régimen General, ,674331.73,4609460.62
50018,676294,4614429,"Cl. Manuel Marraco Ramón, 8",0,50006736,41.66212399,Zaragoza,-0.88252161,Moliere-Zaragoza@Teleline.Es,Privado,College Moliere,7465, ,0101000020E6640000F0D24DC28BA3244132553056479A5141,25830,976 52 54 44,Centro Docente Privado Extranjero en España, ,676293.88,4614429.35
50007,675562,4610434,"Cami. Cuarte, 105",0,50006955,41.62631924,Zaragoza,-0.89247515,Lestonnaccm@Planalfa.Es,Privado,Lestonnac,7466, ,0101000020E6640000105839B4D49D24416A6FF06560965141,25830,976 27 31 78,Centro Privado con varias Enseñanzas de Régimen General, ,675562.35,4610433.59
50020,677448,4618591,"Ctra. De Huesca, S/N",0,50008915,41.69932568,Zaragoza,-0.86743598,aspacezaragoza@terra.es,Privado,San Germán,7467, ,0101000020E6640000386744498FAC244158A835B9579E5141,25830,976 51 65 22,Centro Privado de Educación  Especial, ,677447.64,4618590.89
50012,674332,4609461,"Cami. Fuente De La Junquera, S/N",0,50009026,41.61783106,Zaragoza,-0.90752181, ,Privado,Liceo Europa,7468, ,0101000020E6640000E86A2B7637942441D26F5F276D955141,25830,976 56 50 00,Centro Privado de Educación Secundaria, ,674331.73,4609460.62
50011,669205,4614268,"Ctra. Nacional, 125. Km.7",0,50009361,41.66220656,Zaragoza,-0.96765577,Colegio@Juandelanuza.Org,Privado,Juan De Lanuza,7469, ,0101000020E6640000C042ADA92A6C2441684469F31E9A5141,25830,976 30 03 36,Centro Privado con varias Enseñanzas de Régimen General, ,669205.33,4614267.80
50017,673459,4613846,"Avda.de Navarra,nº 141",0,50009373,41.65749898,Zaragoza,-0.91672473,cpjcazaragoza@educa.aragon.es,Público,José Camón Aznar,7470, ,0101000020E664000098E61D07658D24419C11A599B5995141,25830,976 32 91 02,Colegio Público,http://cpjcazar.educa.aragon.es,673458.51,4613846.40
50002,677288,4613510,C/ Coso n? 214,0,50009397,41.65362576,Zaragoza,-0.87085635,cptenzaragoza@educa.aragon.es,Público,Tenerías,7471, ,0101000020E6640000F8C264EA50AB24418048BF6D61995141,25830,976 29 29 50,Colegio Público,www.cbtenerias.es,677288.46,4613509.71
50014,679512,4615250,"Cl. Río Perejiles, 2",976572838,50009415,41.66879617,Zaragoza,-0.84365184,cpgarzaragoza@educa.aragon.es,Público,Gloria Arenillas,7472, ,0101000020E664000078C7295AAFBC2441D0D5569C149B5141,25830,976 57 28 38,Colegio Público,www.educa.aragob.es/cpgarzar/,679511.68,4615250.44
50008,676787,4612161,Parque Miraflores Nº 1,0,50009580,41.64159348,Zaragoza,-0.87727667,cpmirzaragoza@educa.aragon.es,Público,Miraflores,7473, ,0101000020E6640000C898BB7665A724411648502410985141,25830,976 49 31 05,Colegio Público,www.ceipmiraflores.com,676786.73,4612160.57
50011,663081,4619794,"Ctra. Logroño, Km. 7,8",0,50009646,41.71322908,Zaragoza,-1.03965931,colegioelcarino-zaragoza@hotmail.com,Privado,María Soriano,7474, ,0101000020E6640000E8F21FB2523C2441B6847C7C849F5141,25830,976 33 89 76,Centro Privado de Educación  Especial, ,663081.35,4619793.95
50001,676820,4613331,"Cl. San Jorge, 24",0,50009804,41.65211887,Zaragoza,-0.87652590, ,Privado,J.R. Santa María,7475, ,0101000020E6640000E0718AEEA8A7244130992AB034995141,25830,976 29 57 20,Centro Privado de Música o Danza, ,676820.47,4613330.75
50007,675696,4610763,"Cami.  De Cuarte, 71",0,50017308,41.62925127,Zaragoza,-0.89077136, ,Privado,LA VIRGEN NIÑA,7476, ,0101000020E6640000100BB5A6E09E24414A0C02A7B2965141,25830,976 37 92 96,Centro Privado de Educación Infantil, ,675696.33,4610762.61
50016,680913,4615035,"Avda. Santa Isabel, 166",0,50017333,41.66653638,Zaragoza,-0.82689582, ,Privado,SOLETES,7477, ,0101000020E6640000B047E1FAA1C72441CA32C4A5DE9A5141,25830,976 57 09 58,Centro Privado de Educación Infantil, ,680912.99,4615034.59
50018,676255,4614369,C/ María Zambrano nº 3,0,50017369,41.66158714,Zaragoza,-0.88301098,ceeangelriviere@gmail.com,Público,CPE Angel Riviere,7478, ,0101000020E664000070CE88323DA32441C68F312F389A5141,25830,976 49 39 03,Colegio Público de Educación Especial,http://ceehvzar.educa.aragon.es,676254.60,4614368.74
50018,676374,4614741,"Cl. Padre Marcellán, S/N",0,1791,41.66491211,Zaragoza,-0.88146690, ,Público,Centro Comisión Zaragoza,7479, ,0101000020E6640000D8F97E2A2CA424415CB1BF44959A5141,25830, ,Colegio Público, ,676374.08,4614741.07
50018,676374,4614741,"Cl. Padre Marcellán, S/N",0,1798,41.66491211,Zaragoza,-0.88146690, ,Público,Centro Comisión SP Zaragoza,7480, ,0101000020E6640000D8F97E2A2CA424415CB1BF44959A5141,25830, ,Colegio Público, ,676374.08,4614741.07
50011,669108,4616084,"Pza. Mayor, s/n. (Venta del Olivar)",0,50700239,41.67857965,Zaragoza,-0.96830725,criezzaragoza@educa.aragon.es,Público,CRIE DE ZARAGOZA,7481, ,0101000020E6640000903A016D686B24412E211F1CE59B5141,25830,976 34 11 33,Colegio Público,http://criezara.educa.aragon.es,669108.21,4616084.44
50018,676217,4615806,CL. POETA LUÍS CERNUDA,0,50017539,41.67453289,Zaragoza,-0.88303991, ,Público,LOS VIENTOS,7482, ,0101000020E66400000088F4BBF1A22441B88D06849F9B5141,25830,976 51 57 50,Escuela de Educación Infantil, ,676216.87,4615806.06
50002,677561,4613191,"CL. ANDADOR REINA ESTER/ALBERTO ALBERICIO CONCHÁN, LOCAL Nº 4",0,50017497,41.65070070,Zaragoza,-0.86768495, ,Privado,EL OSO DEL PARQUE,7483, ,0101000020E6640000809ECD2A71AD24410E9C33DE11995141,25830,976 20 49 73,Centro Privado de Educación Infantil, ,677560.58,4613191.47
50012,672232,4610528,"C/ Tomás de Lezaún, 15",976756925,50017710,41.62789901,Zaragoza,-0.93239667,cpmontecanal@educa.aragon.es,Público,Montecanal,7484, ,0101000020E664000050840DCFD083244146B6F31D78965141,25830,976 75 69 25,Colegio Público,http://colegiomontecanal.es,672232.40,4610528.47
50018,676978,4617318,Eugenio Lucas nº 14,976506110,50017862,41.68797593,Zaragoza,-0.87345224,cpaarzaragoza@educa.aragon.es,Público,Agustina de Aragón,7485, ,0101000020E6640000A001BC45E4A824413EE8D994199D5141,25830,976 79 94 99,Colegio Público,www.cpaarzar.educa.aragon.es,676978.14,4617318.33
50019,673539,4610113,"C/ Volver a empezar, 7",976933601,50018246,41.62387209,Zaragoza,-0.91683634,cpvaldespartera@educa.aragon.es,Público,Valdespartera,7486, ,0101000020E6640000B8270FEB068E24410000002410965141,25830,976 93 35 99,Colegio Público,http://cpvaldespartera.educa.aragon.es,673539.46,4610112.56
50015,676933,4615430,Camino juslibol s/n,0,50018143,41.67099223,Zaragoza,-0.87455828,cpjuszaragoza@educa.aragon.es,Público,Lucien Briet,7487, ,0101000020E6640000102DB23D89A82441D4BCE394419B5141,25830,976 74 35 16,Colegio Público,http://educativa.catedu.es/50018143/sitio/index.cgi,676932.62,4615430.33
50012,671530,4611275,"C/Luis García Iberni, 4",876241182,50018271,41.63477413,Zaragoza,-0.94060666,cprdczaragoza@educa.aragon.es,Público,Rosales del Canal,7488,1614301XM7111D,0101000020E6640000B059F579547E244168226CDC32975141,25830,876241565,Colegio Público, ,671530.24,4611275.44
50018,676374,4614741,"Cl. Padre Marcellán, S/N",0,2089,41.66491211,Zaragoza,-0.88146690, ,Público,Centro Comisión C.F. Grado Superior Zaragoza,7489, ,0101000020E6640000D8F97E2A2CA424415CB1BF44959A5141,25830, ,Colegio Público, ,676374.08,4614741.07
50011,672122,4613684,"C/Ibón de Astun,5",0,50018261,41.65632516,Zaragoza,-0.93281674,cpmiralbueno@educa.aragon.es,Público,C.P. Miralbueno,7490, ,0101000020E664000040E8D96CF38224410A8A1FF38C995141,25830,876 26 65 99,Colegio Público,http://cpmiralbueno.educa.aragon.es/,672121.71,4613683.80
50015,677153,4616665,"PZA.TAUROMAQUIA, 1",0,50018015,41.68206063,Zaragoza,-0.87154833, ,Privado,KARACOL,7491, ,0101000020E66400007814AEA741AA244178E9265D769C5141,25830, ,Centro Privado de Educación Infantil, ,677152.83,4616665.46
50018,675644,4616730,"CL. POETA LUCIANO GRACIA, S/N (CENTRO ARAGONÉS DEL DEPORTE)",0,50018003,41.68297890,Zaragoza,-0.88964258, ,Privado,ESCUELA ARAGONESA DE ENTRENADORES DE ATLETISMO,7492, ,0101000020E6640000585BB17F789E244138454796869C5141,25830, ,Centro Privado de Enseñanzas Deportivas, ,675644.25,4616730.35
50018,676978,4617318,"AVDA. MAJAS DE GOYA, 12",0,50018131,41.68797593,Zaragoza,-0.87345224, ,Público,JEAN PIAGET,7493, ,0101000020E6640000A001BC45E4A824413EE8D994199D5141,25830, ,Colegio Público de Educación Especial, ,676978.14,4617318.33
50007,676931,4611305,CL GERONA 3,0,50018386,41.63386090,Zaragoza,-0.87579696, ,Privado,EL ARKA DE KUPPLU,7494, ,0101000020E6640000B02E6E4386A824412ACB10433A975141,25830, ,Centro Privado de Educación Infantil, ,676931.13,4611305.05
50007,676858,4610372,"CL. OVIEDO, 181",0,50018222,41.62548179,Zaragoza,-0.87694553, ,Privado,LA PAZ,7495, ,0101000020E6640000607FD9BDF4A72441508D971651965141,25830, ,Escuela Privada de Música y/o Danza, ,676858.37,4610372.35
50012,671107,4611393,"CL. LUDWIG VAN BEETHOVEN, S/L",0,50018076,41.63591897,Zaragoza,-0.94564680, ,Privado,PEQUENINOS MONTES DEL CANAL,7496, ,0101000020E6640000A80A46C5067B2441022B872250975141,25830, ,Centro Privado de Educación Infantil, ,671107.39,4611392.54
50058,680650,4615301,"CL. LA IGLESIA, Nº 46",0,50018350,41.66899079,Zaragoza,-0.82997621, ,Público,BRIOLETAS,7497, ,0101000020E6640000A03C2C5493C5244156302A29219B5141,25830,976588546,Escuela de Educación Infantil, ,680649.66,4615300.64
50011,672276,4613207,CL. ANTONIO LEYVA  Nº 102,0,50018349,41.65200034,Zaragoza,-0.93110618, ,Público,LOS IBONES,7498, ,0101000020E664000008A3925A278424411895D4C115995141,25830,976489160,Escuela de Educación Infantil, ,672275.68,4613207.03
50018,674997,4616012,CL. LUIS LEGAZ LACAMBRA Nº 44,0,50018362,41.67665583,Zaragoza,-0.89762822, ,Público,MARIA URREA,7499, ,0101000020E6640000808CB96B69992441482EFF01D39B5141,25830,976737716,Escuela de Educación Infantil, ,674996.71,4616012.03
50003,675061,4614104,"CL. REINO, S/N",0,50018337,41.65946749,Zaragoza,-0.89741769, ,Público,EL TREN,7500, ,0101000020E664000080C0CAA1E99924414E401301F6995141,25830, ,Escuela de Educación Infantil, ,675060.82,4614104.02
50014,677386,4613980,"AVDA. PUENTE DEL PILAR/CL JESÚS, 41",0,50018398,41.65783925,Zaragoza,-0.86955060, ,Privado,ZAGALINES,7501, ,0101000020E664000098F6063F13AC2441849ECD0ED7995141,25830,976 39 10 61,Centro Privado de Educación Infantil, ,677385.62,4613980.23
0,676534,4617422,C/ La Fragua  s/n,0,50018817,41.68900951,Zaragoza,-0.87876036, ,Público,C.P. Catalina de Aragón,7502, ,0101000020E66400007068910D6BA524417C832F8C339D5141,25830, ,Colegio Público, ,676533.53,4617422.19
50800,683542,4637382,"Cl. Jorge Luna, 15",0,50008587,41.86707327,Zuera,-0.78844123,cpzuera@educa.aragon.es,Público,Odón De Buen,7503, ,0101000020E66400005817B7912BDC2441780B249CB1B05141,25830,976 68 01 14,Colegio Público,http://cpzuera.educa.aragon.es,683541.78,4637382.44
50800,683376,4637230,"Cl. Puilatos, S/N",0,50017114,41.86574227,Zuera,-0.79048018,eoizuera@educa.aragon.es,Público,Extensión De E.O.I. Nº 2,7504, ,0101000020E664000078C729BAE0DA2441EC51B8928BB05141,25830,976 69 04 83,Escuela Oficial de Idiomas (EOI), ,683376.36,4637230.29
50019,672807,4609109,c/ El Tambor de Hojalata s/n,0,50019081,41.61499549,Zaragoza,-0.92591010, ,Público,San Jorge,7505, ,0101000020E66400007858A8754E8824414E40133115955141,25830, ,Colegio de Educación Infantil y Primaria, ,672807.23,4609108.77
50016,681252,4615360,Dieciséis de Julio nº 10 (Santa Isabel),0,50017874,41.66939172,Zaragoza,-0.82272929,cpespartidero@educa.aragon.es,Público,El Espartidero,7506, ,0101000020E664000060FE43BA47CA244192CB7F18309B5141,25830,976 58 20 61,Colegio Público,www.educa.aragob.es/cpespzar,681251.86,4615360.38
50011,672844,4613823,c/ Iñigo Manuel Marín Sancho s/n,0,50019019,41.65742227,Zaragoza,-0.92410993, ,Público,Julio Verne,7507, ,0101000020E664000038CD3B8E97882441304CA6C2AF995141,25830, ,Colegio de Educación Infantil y Primaria, ,672843.78,4613823.04
22232,757053,4618341,"Cl. El Pilar, 61",974468552,22003343,41.67535870,Ontiñena,0.08802246,cpontinena@aragon.es,Público,San Gregorio,7508, ,0101000020E664000030FF211D7A1A2741C4D32B3D199E5141,25830,974 46 85 52,Colegio Público,http://cpontine.educa.aragon.es,757053.06,4618340.96
44003,660236,4468520,"Cl. Ciudad Escolar, S/N",0,44003247,40.35185916,Teruel,-1.11315303,iesfrateruel@educa.aragon.es,Público,Francés De Aranda,7509, ,0101000020E664000060CC5D6B17262441B6A679FFC90B5141,25830,978 60 25 42,Instituto de Educación Secundaria (IES),http://www.educa.aragob.es/iesfrate/,660235.71,4468519.99
22422,770066,4656103,"Avda. De Las  Sierras, 1",0,22005716,42.01062249,Fonz,0.26133179,crafonz@aragon.es,Público,C.R.A. Estadilla-Fonz,7510, ,0101000020E664000058F5B97A24802741A679C7ADF9C25141,25830,974 41 20 31,Colegio Público, ,770066.24,4656102.72
22630,719625,4723002,"Pza. Ayuntamiento, 4",0,22005731,42.62816156,Biescas,-0.32166696,crabiescas@aragon.es,Público,C.R.A. Alto Gállego,7511, ,0101000020E664000000B37B1212F62541E4A59B784E045241,25830,974 48 53 08,Colegio Público,http://crasalle.educa.aragon.es,719625.04,4723001.88
22700,701856,4716918,"Cl. Ferrocarril, 17",0,22005765,42.57828588,Jaca,-0.54031484,iespijaca@educa.aragon.es,Público,Pirineos,7512, ,0101000020E6640000F07C3FB53F6B25410A4625995DFE5141,25830,974 35 58 57,Instituto de Educación Secundaria (IES),http://iespijac.educa.aragon.es,701855.85,4716918.39
22580,787764,4667733,"Cl. San José De Calasanz, 13",0,22005790,42.10890937,Benabarre,0.48039866,crabenabarre@aragon.es,Público,C.R.A. Ribagorza Oriental,7513, ,0101000020E664000020EBE2D6680A28418295433355CE5141,25830,974 54 32 55,Colegio Público,http://craribor.educa.aragon.es,787764.42,4667732.80
22590,778361,4596679,"Cl. Arrabal Del Norte, S/N",0,22005807,41.47341740,Torrente De Cinca,0.33355172,cratorrente@aragob.es,Público,C.R.A. Ribera Del Cinca,7514, ,0101000020E66400003892CB7FF1C027410C71ACCBF1885141,25830,974 46 71 42,Colegio Público,http://www.educa.aragob.es/cracinca,778360.75,4596679.18
22540,783480,4633232,"Cl. Miguel Fleta, 1",0,22005819,41.80028614,Altorricon,0.41206842,craaltorricon@aragon.es,Público,C.R.A. De Altorricón,7515, ,0101000020E66400000893A962F0E8274182954313A4AC5141,25830,974 42 52 02,Colegio Público,http://craalgay.educa.aragon.es,783480.19,4633232.30
22533,764322,4620820,"Cl. Escuelas,  28",0,22005832,41.69527395,Belver De Cinca,0.17631404,crabelver@aragon.es,Público,C.R.A. Albeos,7516, ,0101000020E664000000F775C0435327416A6FF0F584A05141,25830,974 46 81 26,Colegio Público,http://cralbeos.educa.aragon.es,764321.88,4620819.84
22005,714531,4668152,"Cl. Torre Mendoza, 2",0,22004773,42.13612892,Huesca,-0.40415277,ieslmahuesca@educa.aragon.es,Público,Lucas Mallada,7517, ,0101000020E6640000F8A0671345CE254132E6AE0DBECE5141,25830,974 24 48 34,Instituto de Educación Secundaria (IES),http://ieslmahu.educa.aragon.es,714530.54,4668152.21
22214,727482,4636058,"P.º Comenge, 42",0,22005868,41.84375179,Lalueza,-0.26003097,cralalueza@aragon.es,Público,C.R.A. Monegros-Hoya,7518, ,0101000020E664000088F4DB57733326410434119A66AF5141,25830,974 57 51 46,Colegio Público, ,727481.67,4636058.41
22440,789128,4723046,"Avda.  De Luchón, S/N",0,22005881,42.60562628,Benasque,0.52456650,crabenasque@aragon.es,Público,C.R.A. Alta Ribagorza,7519, ,0101000020E6640000D8A3701D0F15284136CD3B7259045241,25830,974 55 11 80,Colegio Público,www.craaltaribagorza.net,789127.56,4723045.78
22520,779540,4602015,"P.º Barrón Gengonyer, 7",0,22005911,41.52098341,Fraga,0.35013054, ,Público,Instituto Musical Comarcal,7520, ,0101000020E664000068D5E7EA28CA2741865AD3A4278E5141,25830,974 47 09 89,Escuela Pública de Música y/o Danza, ,779540.46,4602014.58
22520,778968,4602243,"Avda. De La Constitución,  S/N",0,22006034,41.52323702,Fraga,0.34338947,cpeafraga@educa.aragon.es,Público,Bajo Cinca,7521, ,0101000020E664000098D40968B0C527411EA7E8C0608E5141,25830,974 47 13 92,Centro Público de Educación de Personas Adultas (Presenc,http://cpafraga.educa.aragon.es,778968.20,4602243.01
22270,700271,4656756,"Avda. Rosario, S/N",0,22006083,42.03734926,Almudevar,-0.58043749,iesalmudevar@educa.aragon.es,Público,Sección Del I.E.S. Pirámide,7522, ,0101000020E6640000285305E3DE5E254188855AE39CC35141,25830,974 25 02 66,Instituto de Educación Secundaria (IES),http://iesalmud.educa.aragon.es,700271.44,4656755.55
22260,718359,4646682,"Cl. Escuelas, S/N",0,22006101,41.94190564,Grañen,-0.36587259,iesgranen@educa.aragon.es,Público,Montes Negros,7523, ,0101000020E664000028E4839E2DEC25412653058FC6B95141,25830,974 39 03 03,Instituto de Educación Secundaria (IES),http://iesgrane.educa.aragon.es,718358.81,4646682.23
22440,789128,4723046,"Avda .De Luchón,  S/N",0,22006137,42.60562628,Benasque,0.52456650,cesbenasque@hotmail.com,Concertado,Valle De Benasque,7524, ,0101000020E6640000D8A3701D0F15284136CD3B7259045241,25830,974 55 21 07,Centro Privado de Educación Secundaria, ,789127.56,4723045.78
22520,778968,4602243,"P.º De La Constitución, S/N",0,22010025,41.52323702,Fraga,0.34338947, ,Público,Extensión De La E.O.I.,7525, ,0101000020E664000098D40968B0C527411EA7E8C0608E5141,25830,974 41 58 40,Escuela Oficial de Idiomas (EOI), ,778968.20,4602243.01
22558,787333,4640628,"Cl. Lorenzo Barea, 4",0,22010062,41.86539309,Albelda,0.46194757, ,Público,E.E.I. De Albelda,7526, ,0101000020E6640000D878E9260A072841E8D9AC0EDDB35141,25830,974 42 02 02,Escuela de Educación Infantil, ,787333.08,4640628.23
44540,709023,4555499,Cl. Ronda Gárate S/N,0,44000121,41.12389788,Albalate Del Arzobispo,-0.51006850,cpalbalate@educa.aragon.es,Público,Román García,7527, ,0101000020E664000070AC8BDB3EA32541567DAECABA605141,25830,978 81 22 31,Colegio Público,http://cpalbala.educa.aragon.es,709023.43,4555499.17
44600,741022,4548269,"Cl. Escolapios,  2",0,44000261,41.04998913,Alcañiz,-0.13215416,esvaleroa@planalfa.es,Concertado,San Valero,7528, ,0101000020E6640000F0F44AD93B9D26417493185CAB595141,25830,978 83 11 55,Centro Privado con varias Enseñanzas de Régimen General, ,741021.92,4548269.44
44600,741123,4548434,"Cl. Blasco, 1",0,44000271,41.05143566,Alcañiz,-0.13089261,Enrialberola@Eresmas.Com,Concertado,La Inmaculada,7529, ,0101000020E664000080D0B359059E2641168C4A62D4595141,25830,978 83 10 87,Centro Privado con varias Enseñanzas de Régimen General, ,741122.68,4548433.54
44500,714654,4539068,"Cl. San Isidro Labrador, 2",0,44000465,40.97455878,Andorra,-0.44878296,cpjraandorra@educa.aragon.es,Público,Juan Ramón Alegre,7530, ,0101000020E6640000782D219F3BCF2541F46C56E9AE505141,25830,978 84 21 90,Colegio Público,www.cpjraand.educa.aragon.es,714653.81,4539067.65
50171,687456,4611446,"C\ Cipriano Gonzalez, 10",0,50004004,41.63272154,Puebla De Alfinden (La),-0.74948518,cpalfinden@educa.aragon.es,Público,Emiliano Labarta,7531, ,0101000020E6640000483789E1BFFA2441E86A2B625D975141,25830,976 10 77 67,Colegio Público,www.cpalfind.educa.aragon.es,687455.94,4611445.53
50770,709138,4588900,"Cl. Don Quintín Debón, 1",0,50004031,41.42445140,Quinto,-0.49724555,cpquinto@educa.aragon.es,Público,Fernando El Católico,7532, ,0101000020E6640000A835CD9B23A42541567DAE0659815141,25830,976 17 73 02,Colegio Público,http://cpquinto.educa.aragon.es,709137.80,4588900.10
50780,722121,4578028,"Avda. Escuelas, 1-3",0,50004326,41.32313903,Sastago,-0.34601859,cpsastago@educa.aragon.es,Público,Daniel Federio,7533, ,0101000020E6640000D834EF189109264136AB3EEFBA765141,25830,976 17 81 00,Colegio Público,http://www.educa.aragob.es/csastago,722120.55,4578027.74
50013,677152,4611922,"Avda. Cesáreo Alierta, 72",0,50007078,41.63936429,Zaragoza,-0.87295983,direccionsec@agustingerico.com,Concertado,Agustín Gericó,7534, ,0101000020E6640000482EFFC140AA244194F6067BD4975141,25830,976 41 00 77,Centro Privado con varias Enseñanzas de Régimen General,agustingerico.com,677152.38,4611921.92
50008,676457,4612603,"Cl. Madre Vedruna, 15",0,50007133,41.64564931,Zaragoza,-0.88110646,nscarmenz@planalfa.es,Concertado,Ntra. Sra. Del Carmen,7535, ,0101000020E664000020C9E55FD1A424412CD49AC27E985141,25830,976 22 14 39,Centro Privado con varias Enseñanzas de Régimen General,http:/ www.nscarmenzaragoza.com,676456.69,4612603.04
50003,675577,4613742,"Cl. Santa Inés, 1",0,50007157,41.65609432,Zaragoza,-0.89133073,elcarmenysanjose@hijascaridadpam.org,Concertado,Ntra. Sra.Del Carmen Y San José,7536,5639312XM7153H,0101000020E664000098081B9EF19D244196D409789B995141,25830,976 43 05 05,Centro Privado con varias Enseñanzas de Régimen General, ,675576.81,4613741.88
50009,674611,4612445,"Cl. María Auxiliadora, 57",0,50007236,41.64463464,Zaragoza,-0.90329778,secretaria@saleszar.org,Concertado,Salesiano Ntra. Sra.Del Pilar,7537, ,0101000020E6640000A857CA926696244126C2864B57985141,25830,976 30 68 78,Centro Privado con varias Enseñanzas de Régimen General,www.saleszar.org,674611.29,4612445.18
50011,669807,4615637,"Camino de Pinseque, S/N",0,50007248,41.67440312,Zaragoza,-0.96004584,tpilarz@planalfa.es,Concertado,Teresiano del Pilar,7538,9858203XM6195H,0101000020E6640000D8A370BDDD702441E27A143E759B5141,25830,976 34 80 95,Centro Privado con varias Enseñanzas de Régimen General,teresianodelpilar.com,669796246.00,4615558121.00
50018,676306,4615161,"Cl. Rafael Alberti, 5",0,50007327,41.66870829,Zaragoza,-0.88216297,secretaria@elpilarmaristas.org,Concertado,El Pilar-Maristas,7539, ,0101000020E664000090B96B89A3A32441C64B3749FE9A5141,25830,976 51 96 55,Centro Privado con varias Enseñanzas de Régimen General, ,676305.77,4615161.14
50006,675662,4611512,"P.º Ruiseñores, 28",0,50007352,41.63600440,Zaragoza,-0.89096626,escolapiaspompiliano@colegiosaragon.org,Concertado,Pompiliano,7540, ,0101000020E66400006888637D9B9E24419A2A18016E975141,25830,976 27 64 92,Centro Privado con varias Enseñanzas de Régimen General,www.escolapiaspompiliano.es,675661.74,4611512.02
50014,677535,4613987,"Cami. Del Vado, 7-9",0,50007388,41.65786935,Zaragoza,-0.86775657,sanantonio@planalfa.es    sanantoniodireccion@planalfa.es,Concertado,La Purisíma Y San Antonio,7541, ,0101000020E6640000A0ABADD83DAD2441EA0434D1D8995141,25830,976 20 22 53,Centro Privado con varias Enseñanzas de Régimen General,www.lapurisimasanantoniozaragoza.com,677534.92,4613987.27
50018,676245,4615477,"Cl. Poeta Pablo Neruda, 35",0,50007431,41.67156287,Zaragoza,-0.88279737,Scjesusz@Planalfa.Es,Concertado,Sagrado Corazón de Jesús,7542, ,0101000020E6640000C01726532AA32441F241CF324D9B5141,25830,976 46 62 82,Centro Privado con varias Enseñanzas de Régimen General,Www.Fsbarat.Org,676245.16,4615476.79
50006,675465,4611956,"Cl. Santa Teresa De Jesús, 23",0,50007467,41.64004834,Zaragoza,-0.89319486,direccion.granvia@lasalle.es,Concertado,La Salle Franciscanas Gran Vía,7543, ,0101000020E6640000604BC847129D244176BE9F1EDD975141,25830,976 30 60 60,Centro Privado de Educación Secundaria,www.lasalle.es/granvia_zaragoza,675465.14,4611956.48
50008,677336,4611677,"Cl. José Galiay, 11",0,50007479,41.63711544,Zaragoza,-0.87083451,Lsmontemolin@Planalfa.Es,Concertado,La Salle Montemolín,7544, ,0101000020E664000080C0CA21AFAB2441D881732697975141,25830,976 41 63 06,Centro Privado con varias Enseñanzas de Régimen General, ,677335.57,4611676.60
50008,676414,4612115,"Cami. De Las Torres, 79-89",0,50007509,41.64126703,Zaragoza,-0.88176055,Sagustinz@Planalfa.Es,Concertado,San Agustín,7545, ,0101000020E664000018D9CE577CA424414A5986C804985141,25830,976 22 48 44,Centro Privado con varias Enseñanzas de Régimen General,http://www.agustinoszaragoza.com/,676414.17,4612115.13
50006,676018,4611328,"Cl. Fray Julián Garás, 1",0,50007534,41.63427083,Zaragoza,-0.88674848,colegio@sanantoniodepadua.e.telefonica.net,Concertado,San Antonio De Padua,7546, ,0101000020E664000008D7A39063A124419A2A180940975141,25830,976 38 51 55,Centro Privado con varias Enseñanzas de Régimen General,www.ccsanantoniodepadua.com,676017.78,4611328.14
50007,675665,4611155,"Cl. Octavio De Toledo, 2",0,50007674,41.63279099,Zaragoza,-0.89103570,director.sanmartin@atades.org,Privado,San Martín De Porres,7547, ,0101000020E6640000D81B7C61A19E2441E8FBA9C514975141,25830,976 37 99 27,Centro Privado de Educación  Especial, ,675664.69,4611155.09
50015,676573,4615310,"Cl. Violeta Parra, 9",0,50007716,41.66999000,Zaragoza,-0.87890906,infocfp@svalero.es,Concertado,San Valero,7548, ,0101000020E664000000BC0552BAA52441E63FA487239B5141,25830,976 46 65 99,Centro Privado de Educación Secundaria,www.svalero.es,676573.16,4615310.12
50001,676934,4613518,"Cl. San Vicente De Paúl, 31",0,50007728,41.65377578,Zaragoza,-0.87511371,Spaulz@Planalfa.es,Concertado,San Vicente De Paúl,7549, ,0101000020E66400001804560E8BA82441C6FEB26763995141,25830,976 29 05 08,Centro Privado con varias Enseñanzas de Régimen General, ,676933.53,4613517.62
44003,660633,4468822,"Ctra. de Alcañiz, S/N (Edificio antiguo matadero)",0,44010215,40.35450307,Teruel,-1.10839796,cultura@teruel.net,Público,Ciudad de Teruel,7550, ,0101000020E6640000A0703D8A322924416A4DF386150C5141,25830,978 60 86 87,Escuela Pública de Música y/o Danza, ,660633.27,4468822.11
22336,769311,4696040,"Cl. La Fuente, S/N",0,22002016,42.36998988,Tierrantona,0.27070982,cptierrantona@aragon.es,Público,La Fueva,7551, ,0101000020E6640000B837F8823E7A2741B22E6E13FAE95141,25830,974 50 71 41,Colegio Público,www.educa.aragob.es/cptierra,769311.26,4696040.30
22192,718739,4667886,"CL.PLACETA DEL CURA, S/N",0,22010244,42.13257199,Tierz,-0.35338204, ,Público,DE TIERZ,7552, ,0101000020E664000080FB3AF025EF25411A51DA877BCE5141,25830,974 24 63 97,Escuela de Educación Infantil, ,718738.97,4667886.12
44640,740832,4548492,C/ CARRETERA Nº 4,0,44010264,41.05204331,Torrecilla De Alcañiz,-0.13431866, ,Público,DE TORRECILLA DE ALCAÑIZ,7553, ,0101000020E6640000A011A5FDC09B2641FCCBEEE1E2595141,25830, ,Escuela de Educación Infantil, ,740832.50,4548491.53
50693,660660,4624787,"Cl. Garfilán, 37",0,50004843,41.75867288,Torres De Berrellen,-1.06740569,cptorresb@educa.aragon.es,Público,Tomás Romojaro,7554, ,0101000020E66400002875025A672924417A36ABDA64A45141,25830,976 65 31 10,Colegio Público,http://cptorres.educa.aragon.es,660659.68,4624787.42
50154,661477,4575736,"Ctra. Cariñena, 12",0,50004879,41.31693715,Tosos,-1.07075009,cptosos@educa.aragon.es,Público,Tosos,7555, ,0101000020E664000010143F46CA2F2441CC5D4B147E745141,25830,976 14 70 22,Colegio Público, ,661477.14,4575736.32
44112,621070,4476502,"Cl. Magdalena, 32",0,44004495,40.43035103,Tramacastilla,-1.57267007,cratramacastilla@educa.aragon.es,Público,C.R.A. Sierra De Albarracín,7556, ,0101000020E6640000D02B65591CF42241C2A8A47695135141,25830,978 70 60 92,Colegio Público,http://crasalba.educa.aragon.es,621070.17,4476501.85
50678,653559,4691252,"CL.AFUERAS, S/N, PLTA. 1ª, EDIFICIO ESCOLAR",0,50017618,42.35838240,Uncastillo,-1.13534535, ,Público,ESCUELA MUNICIPAL DE MÚSICA,7557, ,0101000020E664000020166A8DEEF123416C09F9084DE55141,25830,976 67 90 01,Escuela Pública de Música y/o Danza, ,653559.28,4691252.14
50180,666357,4619339,"Cl. Argentina, S/N",0,50017199,41.70845688,Utebo,-1.00043247,Cmoliner@Ayto-Utebo.Es,Público,Escuela  De Música,7558, ,0101000020E6640000F08E5334EA552441CA32C4C9129F5141,25830,976 79 20 60,Escuela Pública de Música y/o Danza, ,666357.10,4619339.15
50180,666001,4619655,"Cl. Argentina, S/N",0,50010855,41.71137281,Utebo,-1.00462550,cpeautebo@educa.aragon.es,Público,Emilio Navarro,7559, ,0101000020E6640000D83D797821532441388941B4619F5141,25830,976 46 20 03,Centro Público de Educación de Personas Adultas (Presenc,http://centros6.pntic.mec.es/~emiliona/centro.htm,666000.74,4619654.82
50180,666510,4618680,"CL. LUÍS BUÑUEL, 7",0,50017606,41.70249287,Utebo,-0.99878273, ,Público,LA COMETA,7560, ,0101000020E66400000893A9821B57244112A5BD096E9E5141,25830,976 46 28 36,Escuela de Educación Infantil, ,666509.76,4618680.15
44760,681368,4520156,AVENIDA SEÑORES BASELGA S/N,0,44010291,40.81239489,Utrillas,-0.84962976, ,Público,DE UTRILLAS,7561, ,0101000020E66400008004C50F2FCB2441365EBA1D373E5141,25830, ,Escuela de Educación Infantil, ,681367.53,4520156.46
44580,766008,4529235,"Avda. Gral. Gutiérrez Mellado, S/N",0,44004598,40.87100895,Valderrobres,0.15655556,iesvalderrobres@educa.aragon.es,Público,Matarraña,7562, ,0101000020E664000070CE88326F602741F44A59DA14475141,25830,978 85 06 47,Instituto de Educación Secundaria (IES), ,766007.60,4529235.41
44580,765770,4529389,"Avda. Gral. Gutierrez Mellado, S/N",0,44004884,40.87246991,Valderrobres,0.15380899,cpeavalderrobres@educa.aragon.es,Público,C.P.E.P.A. De Valderrobres,7563, ,0101000020E6640000B01C5A84945E274104C58F513B475141,25830,978 85 06 47,Centro Público de Educación de Personas Adultas (Presenc, ,765770.26,4529389.27
44580,765881,4529270,"CL. BELCHITE, 18",0,44010151,40.87135886,Valderrobres,0.15506964, ,Público,DE VALDERROBRES,7564, ,0101000020E664000068D5E7EA715F2741BE0E9C6F1D475141,25830, ,Escuela Pública de Música y/o Danza, ,765880.96,4529269.74
22549,776538,4622293,"CL. CENTRO, S/N",0,22010271,41.70436904,Vencillon,0.32355916, ,Público,DE VENCILLÓN,7565, ,0101000020E6640000A8F1D24DB3B22741E8482E2BF5A15141,25830, ,Escuela de Educación Infantil, ,776537.65,4622292.67
44381,639621,4506154,"Ctra.,  S/N",0,44003478,40.69447003,Villafranca Del Campo,-1.34749799,cravillafrancaca@educa.aragon.es,Público,C.R.A. Alto Jiloca,7566, ,0101000020E664000048E17A54098523414872F98F8A305141,25830,978 86 01 31,Colegio Público,http://cravilla.educa.aragon.es,639620.67,4506154.25
50162,685255,4617953,"Cami. Del Molino, 100",0,50017217,41.69180457,Villamayor,-0.77387050, ,Privado,Aldeas Infantiles Sos De España,7567, ,0101000020E6640000A80A46458EE92441DA8AFD39B89D5141,25830,976 58 28 09,Centro Privado de Educación Infantil, ,685255.14,4617952.91
50162,685410,4617275,"Cl.  Paso, 250",0,50009488,41.68566902,Villamayor,-0.77221874,Cpueyos@Infonegocio.Com,Privado,Los Pueyos,7568, ,0101000020E6640000D8D78173C4EA244138D6C5CD0E9D5141,25830,976 57 02 44,Centro Privado de Educación  Especial, ,685410.23,4617275.22
22231,749125,4622319,"Cl. El Salvador, 5",0,22004578,41.71365700,Villanueva De Sigena,-0.00542603,cpvillanuevas@aragon.es,Público,Miguel Servet,7569, ,0101000020E664000008560ECD8ADC2641D40968B2FBA15141,25830,974 57 84 20,Colegio Público,http://www.educa.aragob.es/cpvillas/inicio.htm,749125.40,4622318.79
50009,674974,4612458,"Cl. Corona De Aragón, 54",0,50007376,41.64467300,Zaragoza,-0.89893673,lpurisimansz@planalfa.es,Privado,La Purísima  Para Niños Sordos,7570, ,0101000020E6640000181DC9C53C9924417C3F35925A985141,25830,976 55 27 49,Centro Privado de Educación  Especial, ,674974.39,4612458.28
50001,676701,4612744,"P.º De La Mina, 4 - 10",0,50007421,41.64686721,Zaragoza,-0.87813403,Scorazonz@Planalfa.Es,Concertado,Sagrado Corazón,7571, ,0101000020E6640000D03B4ED1B9A62441CE88D216A2985141,25830,976 22 48 64,Centro Privado con varias Enseñanzas de Régimen General,www.corazonistas.com/la-mina,676700.91,4612744.36
50011,673120,4613451,"Vía Hispanidad, 117",0,50007613,41.65401146,Zaragoza,-0.92090729, ,Privado,San José,7572, ,0101000020E6640000A8F1D22DBF8A244196B20CB152995141,25830,976 33 24 50,Centro Privado de Educación Infantil, ,673119.59,4613450.77
50002,678158,4612555,"Cl. Monasterio De Santa Catalina, S/N",0,50008058,41.64483840,Zaragoza,-0.86070761,Lasfuentes@Planalfa.Es,Privado,Las Fuentes,7573, ,0101000020E6640000384547921BB22441F8C264BE72985141,25830,976 59 64 27,Centro Privado de Educación Infantil, ,678157.79,4612554.97
50003,676552,4613870,"Cl. Florencio Jardiel, 1",0,50008344,41.65703030,Zaragoza,-0.87959294, ,Privado,Escolanía Infantes Del Pilar,7574, ,0101000020E664000090C2F5488FA524415A863872BB995141,25830,976 29 82 73,Centro Privado de Educación Primaria, ,676551.64,4613869.78
50018,675039,4616120,"Pza. Pedro Saputo, 7",0,50011801,41.67762172,Zaragoza,-0.89708439,cpjalzaragoza@educa.aragon.es,Público,José Antonio Labordeta Subías,7575, ,0101000020E6640000F0F44AB9BE992441F48E5318EE9B5141,25830,976 73 78 42,Colegio Público,cpjalzar.educa.aragon.es,675039.36,4616120.38
50018,676217,4615806,"C/ Julio García Condoy, 50",0,50011847,41.67453289,Zaragoza,-0.88303991,cpavzaragoza@educa.aragon.es,Público,Josefa  Amar Y Borbón,7576, ,0101000020E66400000088F4BBF1A22441B88D06849F9B5141,25830,976 732450,Colegio Público,www.cpavzara.educa.aragon.es,676216.87,4615806.06
50003,674668,4614173,"Avda. Puerta  Sancho, 14",0,50017023,41.66017438,Zaragoza,-0.90211824, ,Privado,Puerta Sancho,7577, ,0101000020E6640000C854C108D7962441083D9B3D079A5141,25830,976 44 38 04,Escuela Privada de Música y/o Danza, ,674667.52,4614172.96
50011,672563,4613107,"Cl. San Vicente Ferrer, S/N",0,50017102,41.65104174,Zaragoza,-0.92768279, ,Público,Extensión De E.O.I.  Nº 1,7578, ,0101000020E664000088C954A166862441DA3D79DCFC985141,25830,976 33 18 03,Escuela Oficial de Idiomas (EOI), ,672563.32,4613107.44
50004,675509,4613186,"Cl. Crespo De Agüero, 1",0,50017163,41.65110553,Zaragoza,-0.89230856, ,Privado,Hermandad Del Refugio,7579, ,0101000020E6640000606DC5DE699D2441F2D24D7E10995141,25830,976 22 18 37,Centro Privado de Educación Infantil, ,675508.94,4613185.97
50001,676715,4613493,"Cl. Refugio, 9, Local",0,50017229,41.65360438,Zaragoza,-0.87774785, ,Privado,Bolandrina,7580, ,0101000020E6640000283A924BD5A62441C876BE4B5D995141,25830,976 20 39 24,Centro Privado de Educación Infantil, ,676714.65,4613493.18
50004,675652,4613295,"Cl. Doctor Fleming, S/N",0,50017242,41.65205199,Zaragoza,-0.89055613, ,Privado,El Carmen,7581, ,0101000020E6640000C086A797889E2441F6065FA82B995141,25830,976 40 45 50,Centro Privado de Educación Infantil, ,675652.30,4613294.63
50410,670684,4606184,"Ctra. De Valencia, Km. 8,5",0,50005549,41.58912804,Zaragoza,-0.95220604,Secretaria@Britanico-Aragon.Edu,Privado,Británico De Aragón,7582, ,0101000020E6640000283108CCB8772441F8C264163A925141,25830,976 50 52 23,Centro Privado con varias Enseñanzas de Régimen General, ,670684.40,4606184.35
50011,670376,4612392,"Cami. Del Buro, 80",0,50005616,41.64506894,Zaragoza,-0.95414083,eesanantonio@hotmail.com,Privado,San Antonio,7583, ,0101000020E6640000B08BDB884F7524417CF2B0E849985141,25830,976 33 19 40,Centro Privado de Educación  Especial, ,670375.77,4612391.64
50008,676171,4612435,"Cl. Residencial Paraíso, 5 - Bajos",0,50010454,41.64419612,Zaragoza,-0.88458946,Estudioadagio@Hotmail.Com,Privado,Adagio,7584, ,0101000020E664000030D49A2695A22441105839A454985141,25830,976 23 26 01,Centro Privado de Música o Danza, ,676170.58,4612434.57
50018,676217,4616059,"Cl. Cineasta Segundo De Chomón, S/N",0,50010740,41.67681260,Zaragoza,-0.88296513,eoizaragoza2@educa.aragon.es,Público,E.O.I. Nº 2,7585,6362302XM7166C,0101000020E6640000A011A5BDF1A22441B6627FD5DE9B5141,25830,976 52 68 88,Escuela Oficial de Idiomas (EOI),http://eoizara2.educa.aragon.es,676216.87,4616059.34
50007,677339,4610743,"P.º  Del Canal, 135",0,50007731,41.62870819,Zaragoza,-0.87107384,Colegiosantana@Telefonica.Net;  stanasecretaria@telefonica.n,Concertado,Santa Ana,7586, ,0101000020E664000098FF905EB5AB244134EF38A9AD965141,25830,976 38 58 11,Centro Privado con varias Enseñanzas de Régimen General, ,677338.68,4610742.64
50012,672776,4611471,"Cl. Sagitario, 5",0,50007777,41.63626277,Zaragoza,-0.92560401,sofiazar.sec@terra.es,Concertado,Santa Magdalena Sofía,7587, ,0101000020E66400009006F0D60F882441AC1C5AAC63975141,25830,976 75 37 30,Centro Privado con varias Enseñanzas de Régimen General,www.magdalenasofiazaragoza.com,672592.42,4611453.59
50012,674890,4610413,"P.º  Reyes De Aragón, 5-7",0,50007789,41.62627935,Zaragoza,-0.90054431,secretaria@marianistas.net    / dgeneral@marianistas.net,Concertado,Santa María Del Pilar,7588, ,0101000020E6640000381AC07B94982441F4FDD4305B965141,25830,976 25 87 87,Centro Privado con varias Enseñanzas de Régimen General, ,674890.24,4610412.76
50009,674470,4612393,"C/ Santa María Reina, 2",0,50007790,41.64419759,Zaragoza,-0.90501241,secretaria@colegiosantamariareina.org,Concertado,Santa María Reina,7589, ,0101000020E6640000982A18554B952441302AA94B4A985141,25830,976 56 99 62,Centro Privado con varias Enseñanzas de Régimen General,www.colegiosantamariareina.org,674469.67,4612393.18
50004,676218,4613245,"Cl. Azoque, 33",0,50007807,41.65148286,Zaragoza,-0.88378646,Srosaz@Planalfa.Es,Concertado,Santa Rosa,7590, ,0101000020E6640000283A922BF3A224415E29CB501F995141,25830,976 22 26 99,Centro Privado con varias Enseñanzas de Régimen General, ,676217.59,4613245.26
50008,676178,4612263,"Cl. La Paz, 9",0,50007820,41.64264742,Zaragoza,-0.88454843, ,Privado,Virgen Reina,7591, ,0101000020E664000038DF4F6DA4A22441BC7493AC29985141,25830,976 23 54 20,Centro Privado de Educación Infantil, ,676178.21,4612262.70
50002,678211,4612737,"Cl. Amistad, 6",0,50007856,41.64646191,Zaragoza,-0.86001193,odsds@planalfa.es,Concertado,Santo Domingo de Silos,7592, ,0101000020E664000040A4DF7E86B2244150FC182BA0985141,25830,976 42 49 47,Centro Privado con varias Enseñanzas de Régimen General,www.colegiosantodomingodesilos.com,678211.25,4612736.67
50006,675844,4611494,"Cl. Maestro Estremiana, 48",0,50007871,41.63579978,Zaragoza,-0.88878553, ,Privado,Santo Tomás De Aquino,7593, ,0101000020E6640000789CA2E307A02441E63FA46F69975141,25830,976 27 18 76,Centro Privado de Educación Primaria, ,675843.94,4611493.74
50007,676038,4611177,"Cl. Venecia, 12-16",0,50007996,41.63290944,Zaragoza,-0.88654893,administracion@villacruz.e.telefonica.net;carlosifj@terra.es,Concertado,Villa Cruz,7594, ,0101000020E66400003090A0388CA12441C05B20591A975141,25830,976 27 51 47,Centro Privado con varias Enseñanzas de Régimen General, ,676038.11,4611177.39
50011,672588,4613451,"Cl. Final San Eloy, S/N",0,50008009,41.65413233,Zaragoza,-0.92728413,colviblanca@telefonica.net,Concertado,Virgen Blanca,7595, ,0101000020E6640000904AEA8498862441EA0434D952995141,25830,976 33 71 49,Centro Privado con varias Enseñanzas de Régimen General, ,672588.26,4613451.39
50015,677006,4614751,"Cl. Cañon De Añisclo,  S/N",0,50008149,41.66485814,Zaragoza,-0.87387933,cpellzaragoza@educa.aragon.es,Público,Eugenio López Y López,7596, ,0101000020E6640000604BC8E71BA924415C2041A9979A5141,25830,976 51 85 55,Colegio Público,www.educa.aragob.es/cpellzar,677005.95,4614750.64
50006,675802,4611418,"P.º Ruiseñores, 51",0,50008174,41.63513144,Zaragoza,-0.88930655,iesmsezaragoza@educa.aragon.es,Público,Miguel Servet,7597, ,0101000020E664000008AC1CBAB49F2441B0506B9E56975141,25830,976 25 93 83,Instituto de Educación Secundaria (IES),http://iesmseza.educa.aragon.es,675802.36,4611418.48
50006,675630,4612260,"Avda. Goya, 45",0,50008198,41.64274752,Zaragoza,-0.89112609,iesgoyzaragoza@educa.aragon.es,Público,Goya,7598, ,0101000020E6640000D019513A5C9E244152499D1829985141,25830,976 55 70 23,Instituto de Educación Secundaria (IES),http://iesgoyza.educa.aragon.es,675630.11,4612260.38
50009,674128,4612441,"Avda. Juan Carlos I, 11",0,50008277,41.64470518,Zaragoza,-0.90909281,iesjerzaragoza@educa.aragon.es,Público,Jerónimo Zurita,7599, ,0101000020E6640000684DF3EEA0922441AED85F5256985141,25830,976 35 33 61,Instituto de Educación Secundaria (IES),http://iesjerza.educa.aragon.es,674128.47,4612441.29
50001,677111,4613380,"Cl. Universidad, 2",0,50008289,41.65249468,Zaragoza,-0.87302097,iespluzaragoza@educa.aragon.es,Público,Pedro De Luna,7600, ,0101000020E66400003008AC9CEEA924411C5A64EB40995141,25830,976 29 02 49,Instituto de Educación Secundaria (IES),http://iespluza.educa.aragon.es,677111.31,4613379.68
50009,674428,4611230,"Cl. Pedro Iv El Ceremonioso, 1",0,50008332,41.63373772,Zaragoza,-0.90585627,secretaria@colegioromareda.com,Concertado,Romareda,7601, ,0101000020E664000068AA6034F7942441D200DE8627975141,25830,976 56 20 17,Centro Privado con varias Enseñanzas de Régimen General,http://www.colegioromareda.com,674427.60,4611230.11
50009,674461,4611672,"Cl. Pedro III El Grande,  4",0,50008356,41.63770853,Zaragoza,-0.90532926,cpcalzaragoza@educa.aragon.es,Público,Cesáreo Alierta,7602, ,0101000020E664000070C5FE923995244126C2860396975141,25830,976 55 79 35,Colegio Público,www.cesareoalierta.com,674460.79,4611672.06
50009,674461,4611672,"Cl. Pedro Iii El Grande, 4",0,50008368,41.63770853,Zaragoza,-0.90532926,cpdazzaragoza@educa.aragon.es,Público,Doctor Azúa,7603, ,0101000020E664000070C5FE923995244126C2860396975141,25830,976 30 65 92,Colegio Público,www.educa.aragon.es/cpdazzar/,674460.79,4611672.06
50009,674387,4611571,"Cl. Pedro Iii El Grande, S/N",0,50008371,41.63681716,Zaragoza,-0.90624813,cpcauzaragoza@educa.aragon.es,Público,César Augusto,7604, ,0101000020E6640000B88D0650A59424416C567DCE7C975141,25830,976 56 32 16,Colegio Público,www.cpcauzar.educa.aragon.es,674386.66,4611571.23
50009,674455,4611469,"Cl. Asín Y Palacios, 19",0,50008381,41.63588442,Zaragoza,-0.90546149,cpegbzaragoza@educa.aragon.es,Público,Eliseo Godoy Beltrán,7605, ,0101000020E6640000C8EEC9632D95244164AA605063975141,25830,976 56 08 75,Colegio Público,http://eliseogodoy.org,674454.69,4611469.26
50010,674815,4613644,"Cl. Juan Xxiii, 3",0,50008459,41.65537982,Zaragoza,-0.90050826,iesporzaragoza@educa.aragon.es,Público,El Portillo,7606, ,0101000020E6640000B8F3FD14FD97244192CB7FF882995141,25830,976 33 64 33,Instituto de Educación Secundaria (IES),http://iesporza.educa.aragon.es,674814.54,4613643.88
50003,675194,4614520,"C/ Sierra Vicor, 20",0,50008460,41.66317830,Zaragoza,-0.89570017,Ieslbuzaragoza@educa.aragon.es,Público,Luis Buñuel,7607, ,0101000020E6640000181DC985F39A2441DA1B7CE15D9A5141,25830,976 44 00 28,Instituto de Educación Secundaria (IES),http://ieslbuza.educa.aragon.es,675193.76,4614519.52
50018,676698,4612964,"C/ MARÍA ZAMBRANO,5",0,50008514,41.64884424,Zaragoza,-0.87810079,eayozaragoza@educa.aragon.es,Público,Escuela De Arte,7608, ,0101000020E6640000480C028BB4A62441AE25E4FBD8985141,25830,976.23.61.71,Escuela de Arte,www.escueladeartedezaragoza.com,676698.27,4612963.94
50800,683206,4637883,"Cl. Antonio Machado, 18",0,50008605,41.87165422,Zuera,-0.79232664,nspilarzuera@colegio.es.telefonica.net,Concertado,Ntra. Sra Del Pilar,7609, ,0101000020E664000040575B718CD92441E86A2BB22EB15141,25830,976 68 01 16,Centro Privado con varias Enseñanzas de Régimen General, ,683206.22,4637882.78
50800,686267,4638054,"Cl. San Gabriel,  S/N",0,50008617,41.87247931,Zuera,-0.75541114,Sgabrielzu@Planalfa.Es,Concertado,San Gabriel,7610, ,0101000020E6640000D04D62F076F12441D4BCE37859B15141,25830,976 68 00 44,Centro Privado con varias Enseñanzas de Régimen General, ,686267.47,4638053.89
22600,716795,4708928,"Cl. Derechos Humanos, 3",974480462,22003847,42.50235205,Sabiñanigo,-0.36148369,cppssabinanigo@educa.aragon.es,Público,Puente Sardas,7611, ,0101000020E6640000083411B6F6DF25412631080490F65141,25830,974 48 04 62,Colegio Público,www.colegiopuentesardas.org,716795.36,4708928.06
22200,736132,4630923,"Pza. Mayoral Antonio Susín,  2-3",0,22004104,41.79502223,Sariñena,-0.15800244,cpsarinena@educa.aragon.es,Público,La Laguna,7612, ,0101000020E664000008A3929A08772641D4BCE3BC62AA5141,25830,974 57 13 14,Colegio Público,http://cpsarine.educa.aragon.es,736132.30,4630922.95
22230,745695,4622222,"Avda. Huesca, S/N",0,22004189,41.71385216,Sena,-0.04664175,cpsena@aragon.es,Público,Alberto Galindo,7613, ,0101000020E6640000A86054F2BEC12641F8C2647AE3A15141,25830,974 57 83 45,Colegio Público, ,745695.47,4622221.91
22870,702134,4728289,"Cami. La Fuente, S/N",974378197,22004566,42.68051708,Villanua,-0.53289368,cpvillanua@aragon.es,Público,Collarada,7614, ,0101000020E6640000E09C11456B6D2541EC2FBB3778095241,25830,974 37 80 43,Colegio Público, ,702133.63,4728288.87
22530,772234,4611089,"Avda. San Antonio Abad, 37",0,22004608,41.60510755,Zaidin,0.26682186,cpzaidin@aragon.es,Público,San Juan Bautista,7615, ,0101000020E664000070AC8BBB149127410A8A1F5F04975141,25830,974 47 82 08,Colegio Público,www.educa.aragob.es/cpzaidin,772234.37,4611089.49
22003,713901,4668404,"Cl. Valentín Carderera, 6",0,22004633,42.13856283,Huesca,-0.41166675,Cpepahuesca@educa.aragon.es,Público,El Parque,7616, ,0101000020E6640000E02406A15AC92541A245B6E7FCCE5141,25830,974 22 10 38,Colegio Público,http://cpepahue.educa.aragon.es,713901.31,4668403.62
22002,713629,4668883,"Poligono Ruiseñor, S/N",0,22004657,42.14295113,Huesca,-0.41478377,Altoaragon.Colegio@Planalfa.Es,Privado,Altoaragón,7617, ,0101000020E6640000482575E239C72541DE718AC674CF5141,25830,974 22 65 35,Centro Privado de Educación Secundaria, ,713628.94,4668883.10
22003,714065,4668424,"Cl. Coso Alto, 32",0,22004803,42.13870422,Huesca,-0.40968595, ,Privado,Alfred,7618, ,0101000020E6640000B0D85F16A1CA2541FC3A701202CF5141,25830,974 22 17 25,Centro Privado de Formación Profesional Específica, ,714064.54,4668424.29
22400,764762,4645193,"Cl. Calvario, 13",0,22004840,41.91431595,Monzon,0.19247363,cparmonzon@educa.aragon.es,Público,Aragón,7619, ,0101000020E6640000901804D6B4562741CE3B4E4152B85141,25830,974 40 03 14,Colegio Público,http:/www.educa.aragob.es/cparmonz/,764762.42,4645193.02
44770,684813,4518475,"Avda. De La Constitución, 3",0,44001378,40.79649008,Escucha,-0.80930428,cpagescucha@educa.aragon.es,Público,Antonio Gargallo Moya,7620, ,0101000020E6640000585227201AE62441006F81C0923C5141,25830,978 75 81 27,Colegio Público,http://centros4.pntic.es.mec.es/c.p..antonio.gargallo.moya,684813.06,4518475.01
44564,732451,4523711,"Cl. Escuelas, 9",0,44002061,40.83150420,Mas De Las Matas,-0.24323006,cpvsmasmatas@educa.aragon.es,Público,Valero Serrano,7621, ,0101000020E664000070348057465A26410E2DB2A5AF415141,25830,978 84 80 87,Colegio Público,http://cpvsmasm.educa.aragon.es,732451.17,4523710.59
44700,685602,4522836,"Cl. Balmes, 7",0,44002191,40.83556513,Montalban,-0.79866593,Cpmontalban@educa.aragon.es,Público,Cuencas Mineras,7622, ,0101000020E664000060FE433A43EC24411E85EBE1D4405141,25830,978 75 02 85,Colegio Público,http://cpmontal.educa.aragon.es,685601.61,4522835.53
44163,668853,4500102,"Cl. Frontón, 6",0,44002541,40.63451401,Perales Del Alfambra,-1.00332116,craperalesa@educa.aragon.es,Público,C.R.A. Teruel Uno,7623, ,0101000020E664000068B3EA536A692441F48E5398A12A5141,25830,978 77 52 82,Colegio Público,www.crateru1.educa.aragon.es,668853.16,4500102.38
44460,686553,4445624,"Cl. Tenor Juan García, 2",0,44002942,40.14026194,Sarrión,-0.81011183,cpsarrion@educa.aragon.es,Público,C.P. De Sarrión,7624, ,0101000020E6640000B8DA8ADDB1F32441E2361A006EF55041,25830,978 78 01 78,Colegio Público,http://adigital.pntic.mec.es/~sarrion/,686552.93,4445624.00
44002,661400,4466403,"Avda. Sagunto, S/N",0,44003041,40.33257021,Teruel,-1.09998610,teruel@lasalle.es,Concertado,La Salle-San José,7625, ,0101000020E6640000E8D9ACDA2F2F244180B740AEB8095141,25830,978 61 71 78,Centro Privado con varias Enseñanzas de Régimen General, ,661399.93,4466402.72
44003,659705,4468524,"Cami. De Capuchinos, 1",0,44003077,40.35199534,Teruel,-1.11939750,semimen@planalfa.es,Concertado,Las Viñas,7626, ,0101000020E6640000C87F481FF22124419CC420F4CA0B5141,25830,978 61 71 15,Centro Privado con varias Enseñanzas de Régimen General,www.colegiolasvinas.com,659705.06,4468523.81
44001,660585,4467609,"Cl. Yagüe De Salas, 21",0,44003090,40.34359040,Teruel,-1.10927092,cpjeteruel@educa.aragon.es,Público,Pierres Vedel,7627, ,0101000020E664000040E8D90CD228244156302A49E60A5141,25830,978 60 32 57,Colegio Público,www.educa.aragob.es/cpjeteru,660585.03,4467609.14
44002,660683,4466478,"Avda. Ruiz Jarabo, 4",0,44003156,40.33338271,Teruel,-1.10840334,Victoriadiez@Planalfa.es,Concertado,Victoria Diez,7628, ,0101000020E6640000504013E195292441C4B12E66CB095141,25830,978 62 01 31,Centro Privado con varias Enseñanzas de Régimen General, ,660682.94,4466477.60
44001,660888,4467228,"Pza. Goya, 5",0,44003171,40.34009583,Teruel,-1.10579718,Terciarias@Planalfa.Es,Concertado,La Purísima Y Santos Mártires,7629, ,0101000020E6640000789CA2C3302B2441764F1EE2860A5141,25830,978 60 11 61,Centro Privado con varias Enseñanzas de Régimen General, ,660888.38,4467227.53
44002,660839,4466352,"C/ Juez Villanueva, 1",0,44003211,40.33222124,Teruel,-1.10659747,iessemteruel@educa.aragon.es,Público,Santa Emerenciana,7630, ,0101000020E6640000506B9A37CE2A244128A089FCAB095141,25830,978 62 05 64,Instituto de Educación Secundaria (IES), ,660839.11,4466351.95
50177,737554,4597807,"Cl. La Luna, S/N",0,50011720,41.49668514,Bujaraloz,-0.15406740,iesbujaraloz@educa.aragon.es,Público,Sección  Del I.E.S. Mar De Aragón,7631, ,0101000020E6640000D8A3703D23822641365EBABD0B8A5141,25830,976 17 32 20,Instituto de Educación Secundaria (IES),http://iesbujar.educa.aragon.es,737553.62,4597806.96
50700,747755,4568882,"Cl. José  María  Albareda, 4",0,50011732,41.23340243,Caspe,-0.04381661,iescaspe@educa.aragon.es,Público,Mar De Aragón,7632, ,0101000020E664000078C7291AD6D12641FE43FA91CC6D5141,25830,976 63 02 08,Instituto de Educación Secundaria (IES),http://www.iesmardearagon.es/,747755.05,4568882.28
50018,675465,4615988,"Cl. Luís Legaz Lacambra, 2",0,50011768,41.67633811,Zaragoza,-0.89201068, ,Privado,La Casita De Nany,7633, ,0101000020E664000030772D61129D2441F0A7C60BCD9B5141,25830,976 73 77 73,Centro Privado de Educación Infantil, ,675465.19,4615988.18
50009,674651,4611073,"P.º  Isabel La Católica, 5-7",0,50011781,41.63227709,Zaragoza,-0.90321822,secretaria@fpvalledetena.com,Concertado,Valle De Tena,7634, ,0101000020E664000048E17A94B696244104C58F5100975141,25830,976 55 03 65,Centro Privado de Formación Profesional Específica, ,674651.29,4611073.27
50010,674539,4613381,"Cl. Padre Manjón, 38-40",0,50011793,41.65307422,Zaragoza,-0.90389318,Artemiss@Arte-Miss.Com,Privado,Arte-Miss Zaragoza Centro 1,7635, ,0101000020E664000078F2B0D0D595244184C0CA4141995141,25830,976 33 11 88,Centro Privado de Formación Profesional Específica, ,674538.91,4613381.03
50015,676944,4614249,"Cl. Villacampa, 32-36",0,50011872,41.66035970,Zaragoza,-0.87477471, ,Público,Villacampa,7636, ,0101000020E6640000C00512749FA8244150AF94551A9A5141,25830,976 52 32 83,Escuela de Educación Infantil, ,676943.73,4614249.34
50015,676629,4616008,"Cl. Matías Pastor Sancho, 2 , Blo. 4-5",0,50017001,41.67625974,Zaragoza,-0.87803713, ,Privado,Andarines,7637, ,0101000020E66400001873D73229A624412063EE02D29B5141,25830,976 52 32 60,Centro Privado de Educación Infantil, ,676628.60,4616008.05
50003,674761,4614128,"Cl. Río Cinca, 35",0,50017011,41.65974478,Zaragoza,-0.90101478, ,Privado,Educando,7638, ,0101000020E664000030FF211D91972441749318E0FB995141,25830,976 28 29 97,Centro Privado de Educación Infantil, ,674760.56,4614127.50
50695,649336,4680479,"Cl.  De La Fuente, S/N",0,50017035,42.26223124,Biota,-1.18939024, ,Público,E.E.I. De Biota,7639, ,0101000020E664000040FAED2BEFD02341560E2DD2C7DA5141,25830,976 67 00 14,Escuela de Educación Infantil, ,649335.59,4680479.28
50018,676142,4615079,"Cl. Poeta León Felipe, 19-21",0,50017047,41.66800669,Zaragoza,-0.88415587, ,Privado,Actur,7640, ,0101000020E664000070F90F895BA224417A36ABCAE99A5141,25830,976 74 40 07,Centro Privado de Música o Danza, ,676141.77,4615079.17
50009,674230,4611733,"Avda. Alcalde Sáinz De Varanda, 1 - 3",0,50017059,41.63830330,Zaragoza,-0.90808529, ,Privado,Centro de Diseño HACER CREATIVO,7641, ,0101000020E6640000483789416B93244156302A21A5975141,25830,976 40 03 25,Centro Privado Superior de Artes Plásticas y Diseño, ,674229.63,4611732.52
50010,675088,4613305,"Urb. Parque Roma, Local 12-B",0,50017060,41.65226969,Zaragoza,-0.89732283,Fchopin@Mibbva.Com,Privado,Federico Chopín,7642, ,0101000020E6640000D868006F209A2441423EE8412E995141,25830,976 33 34 35,Escuela Privada de Música y/o Danza, ,675088.22,4613305.03
50015,677090,4616563,"Cl. El Coloso, S/N",0,50017072,41.68115591,Zaragoza,-0.87233890,cppgzaragoza@educa.aragon.es,Público,Parque Goya,7643, ,0101000020E664000060DC4603C3A9244152DA1BD85C9C5141,25830,976 10 63 88,Colegio Público,cppgozar.educa.aragon.es,677089.51,4616563.38
50300,613204,4578576,"Cl. Fernández Ardavín, 3",0,50017084,41.35072981,Calatayud,-1.64677825, ,Privado,Pequeayud,7644, ,0101000020E664000070E7FBE9A7B622419CC420F843775141,25830,976 88 22 31,Centro Privado de Educación Infantil, ,613203.96,4578575.88
50700,747755,4568882,"Cl. José Mª. Albareda, 4",0,50017126,41.23340243,Caspe,-0.04381661, ,Público,Extensión De E.O.I.,7645, ,0101000020E664000078C7291AD6D12641FE43FA91CC6D5141,25830,976 63 02 08,Escuela Oficial de Idiomas (EOI), ,747755.05,4568882.28
50018,676025,4615493,"Cl. Ildefonso Manuel Gil, 37",0,50017138,41.67175946,Zaragoza,-0.88543493, ,Privado,La Pequeña Cometa,7646, ,0101000020E6640000E8D0221B72A124414C158C4E519B5141,25830,976 73 04 72,Centro Privado de Educación Infantil, ,676025.05,4615493.23
50150,660560,4563821,"Cl. Revés, 43",0,50017141,41.20984857,Herrera De Los Navarros,-1.08483808,Cpherrera@Aragob.Es,Público,Zagalicos,7647, ,0101000020E6640000803F353EA0282441A4DFBE3ADB685141,25830,976 14 31 06,Escuela de Educación Infantil, ,660560.12,4563820.92
50280,638070,4598307,"Cl. Fernando El Católico, 2",0,50017151,41.52450528,Calatorao,-1.34513938,Ayuncalatorao@Terra.Es,Público,E.E.I. De Calatorao,7648, ,0101000020E664000040575B11EB782341FAEDEBB4888A5141,25830,976 60 71 11,Escuela de Educación Infantil, ,638069.53,4598306.83
50013,677341,4612204,"Cl. Privilegio De La Unión, 39",0,50017175,41.64186084,Zaragoza,-0.87061548,Patronato@Able.Es,Privado,Ntra. Sra. De Los Dolores,7649, ,0101000020E6640000E873B595B9AB2441E0BE0EFC1A985141,25830,976 49 97 03,Centro Privado de Educación Infantil, ,677340.79,4612203.94
50007,676534,4610352,"Cl.  Pablo Parellada, 44",0,50017254,41.62537307,Zaragoza,-0.88084570, ,Privado,Siervas De Los Pobres,7650, ,0101000020E664000018C05B806BA524418E976E124C965141,25830,976 27 12 42,Centro Privado de Educación Infantil, ,676533.75,4610352.29
50007,675635,4610599,"Cl. Mesones De Isuela, 62",0,50017266,41.62779447,Zaragoza,-0.89155113, ,Privado,Muñecos,7651, ,0101000020E6640000A001BCA5669E2441D0B359D189965141,25830,976 38 73 54,Centro Privado de Educación Infantil, ,675635.32,4610599.27
50750,706312,4595742,"Cl Fernando El Católico, 20",0,50017278,41.48675314,Pina De Ebro,-0.52869430,Aytopina@Terra.Es,Público,Escuela De Música,7652, ,0101000020E664000000917EFB0F8E25414850FC8007885141,25830,976 16 50 07,Escuela Pública de Música y/o Danza, ,706311.99,4595742.02
50300,613715,4579019,"Cl Baja Del Sepulcro, 2",0,50017281,41.35464966,Calatayud,-1.64058454, ,Público,Escuela  De Música,7653, ,0101000020E6640000B88D0690A6BA2241285C8FCAB2775141,25830,976 88 59 24,Escuela Pública de Música y/o Danza, ,613715.28,4579019.17
22800,690629,4683024,"Cl. Progreso, 4",0,22000585,42.27613514,Ayerbe,-0.68825059,cpayerbe@educa.aragon.es,Público,Ramón Y Cajal,7654, ,0101000020E66400000881954389132541787AA5EC43DD5141,25830,974 38 00 28,Colegio Público,http://cpayerbe.educa.aragon.es/,690628.63,4683023.70
22300,757772,4658308,"Avda. Ejército Español, 79",0,22000743,42.03457662,Barbastro,0.11405672,Sdlainmaculada@Planalfa.Es,Privado,La Inmaculada,7655, ,0101000020E6640000A83E57DB182027414A0C020721C55141,25830,974 31 14 00,Centro Privado de Educación Secundaria, ,757772.43,4658308.11
22300,759239,4658180,"Avda. Del Cinca, S/N",0,22000809,42.03294138,Barbastro,0.13169369,ieshabarbastro@educa.aragon.es,Público,Hermanos Argensola,7656, ,0101000020E664000020F46C568E2B2741BE9F1AF700C55141,25830,974 31 17 38,Instituto de Educación Secundaria (IES),http://ieshabar.educa.aragon.es,759239.17,4658179.86
22500,773656,4638403,"Cl. Mariano De Pano, 5 Y 7",0,22001085,41.85023174,Binefar,0.29640483,virgenromeral@colegiosaragon.org,Concertado,Virgen Del Romeral,7657, ,0101000020E66400003008ACDC309C27417AA52CC7B0B15141,25830,974 42 80 84,Centro Privado con varias Enseñanzas de Régimen General, ,773656.43,4638403.11
22160,699613,4686284,"Cl. Carretera, 6",0,22001191,42.30322242,Bolea,-0.57826104,cpbolea@aragon.es,Público,Virgen De La Soledad,7658, ,0101000020E6640000E0C798BBBA5925414CC807F172E05141,25830,974 27 25 62,Colegio Público, ,699613.37,4686283.77
22340,753006,4703359,"Cl. Samper, S/N",0,22001218,42.44128041,Boltaña,0.07618790,ehboltana@educa.aragon.es,Público,E.H. De Boltaña,7659, ,0101000020E664000008B5A6B9DBFA264188635DAC1FF15141,25830,974 50 20 75,Residencia,http://ehboltan.educa.aragon.es,753005.86,4703358.69
22370,736123,4720797,"Avda. Ordesa, 1",0,22001243,42.60345307,Broto,-0.12162929,crabroto@aragon.es,Público,C.R.A. Alto Ara,7660, ,0101000020E6640000187C6192F5762641C442AD4527025241,25830,974 486 317,Colegio Público,http://altoara.educa.aragon.es,736122.79,4720797.09
22520,778814,4602215,"Avda.  Deportes, 4",0,22001887,41.52304309,Fraga,0.34153153,cpjcfraga@educa.aragon.es,Público,San José De Calasanz,7661, ,0101000020E6640000A83E57FB7BC42741948785DE598E5141,25830,974 47 27 06,Colegio Público,http://cpjcfrag.educa.aragon.es/,778813.99,4602215.48
22300,759239,4658180,"Avda. Del Cinca, S/N",0,22000721,42.03294138,Barbastro,0.13169369,cpaabarbastro@educa.aragon.es,Público,Alto Aragón,7662, ,0101000020E664000020F46C568E2B2741BE9F1AF700C55141,25830,974 31 19 76,Colegio Público,http://cpaabarb.educa.aragon.es,759239.17,4658179.86
22520,780497,4602272,"Ctra. Nacional,  Km.442",0,22001905,41.52296350,Litera,0.36169670,cplitera@aragon.es,Público,C.P. De Litera,7663, ,0101000020E664000060DC4643A2D12741E4F21FFE678E5141,25830,974 47 04 30,Colegio Público,http://cplitera.educa.aragon.es,780497.13,4602271.97
22520,778968,4602243,"P.º De La Constitución, S/N",0,22001917,41.52323702,Fraga,0.34338947,iesrsfraga@educa.aragon.es,Público,Ramón J. Sender,7664, ,0101000020E664000098D40968B0C527411EA7E8C0608E5141,25830,974 47 01 44,Instituto de Educación Secundaria (IES),http://iesender.org,778968.20,4602243.01
22260,718359,4646682,"Cl. Escuelas, S/N",974390203,22002119,41.94190564,Grañen,-0.36587259,cpsaphuesca@educa.aragon.es,Público,Santiago Apóstol,7665, ,0101000020E664000028E4839E2DEC25412653058FC6B95141,25830,974 39 02 03,Colegio Público,http://cpgrañen.educa.aragon.es,718358.81,4646682.23
22430,776426,4676541,"Partida Coscolla, S/N",0,22002168,42.19218223,Graus,0.34766589,iesgraus@educa.aragon.es,Público,Baltasar Gracián,7666, ,0101000020E6640000D878E926D3B12741728A8E50EFD65141,25830,974 54 01 57,Instituto de Educación Secundaria (IES),http://iesgraus.educa.aragon.es,776425.58,4676541.26
22004,713269,4668638,"Cl. Fraga, 1",0,22002302,42.14084051,Huesca,-0.41921912,cpjxxhuesca@educa.aragon.es,Público,Juan XXIII,7667, ,0101000020E664000058EC2FFB6AC42541CCCCCC6837CF5141,25830,974 22 02 96,Colegio Público,http://cpjxxhue.educa.aragon.es,713269.49,4668637.64
22006,715128,4668838,"Cl. Pio Xii, 1",0,22002338,42.14213234,Huesca,-0.39668045,cppxhuesca@educa.aragon.es,Público,Pío XII,7668, ,0101000020E664000000BC0592EFD225414A9D806A69CF5141,25830,974 22 35 93,Colegio Público,http://cppxhues.educa.aragon.es,715127.79,4668837.66
22005,714497,4668087,"Cl. Torre Mendoza, 1",0,22002341,42.13555495,Huesca,-0.40458397,cpsrahuesca@educa.aragon.es,Público,Sancho Ramírez,7669, ,0101000020E6640000E895B2AC01CE254180D93DD9ADCE5141,25830,974 24 24 83,Colegio Público,www.cpsrahue.educa.aragon.es,714496.84,4668087.39
22002,714024,4668948,"Cl. Pedro Iv, 81",0,22002405,42.14342610,Huesca,-0.40999000,Ceisanjose_H@Hotmail.Com,Privado,San José,7670, ,0101000020E6640000A89BC4004FCA2541F6B9DAF684CF5141,25830,974 22 07 74,Centro Privado de Educación Infantil, ,714023.50,4668947.86
22003,713877,4668819,"Avda. Monreal, 14",0,22002430,42.14230413,Huesca,-0.41180498,salesianos.huesca@salesians.info,Concertado,Salesiano San Bernardo,7671, ,0101000020E6640000281895942AC92541DE0209AE64CF5141,25830,974 22 18 00,Centro Privado con varias Enseñanzas de Régimen General, ,713877.29,4668818.72
22004,713629,4668883,"Psje. Ruiseñor, S/N",0,22002466,42.14295113,Huesca,-0.41478377,Santarosah@Planalfa.Es,Concertado,Santa Rosa,7672, ,0101000020E6640000482575E239C72541DE718AC674CF5141,25830,974 22 15 64,Centro Privado con varias Enseñanzas de Régimen General, ,713628.94,4668883.10
22004,713520,4668437,"Avda. De La Paz,  9",0,22002508,42.13897145,Huesca,-0.41625879,iesrychuesca@educa.aragon.es,Público,Ramón Y Cajal,7673, ,0101000020E664000060FE43DA60C62541C286A75F05CF5141,25830,974 22 04 36,Instituto de Educación Secundaria (IES),http://iesrychu.educa.aragon.es,713520.43,4668437.49
22005,714650,4668117,"Cl. Ramón J. Sender, 4",0,22002521,42.13578063,Huesca,-0.40271958,iessguhuesca@educa.aragon.es,Público,Sierra De Guara,7674, ,0101000020E66400002806815534CF254108CE1949B5CE5141,25830,974 24 34 77,Instituto de Educación Secundaria (IES),http://iessguhu.educa.aragon.es,714650.17,4668117.14
22004,713413,4667492,"Cl. Binéfar, 5",0,22002569,42.13049032,Huesca,-0.41790794,cpalchuesca@educa.aragon.es,Público,Alcoraz,7675, ,0101000020E6640000409B553F89C52541D2915CE618CE5141,25830,974 21 03 08,Colegio Público, ,713412.62,4667491.60
22700,700714,4715704,"Cl. San José De Calasanz, 3",0,22002673,42.56766003,Jaca,-0.55463901,cpsjphuesca@educa.aragon.es,Público,San Juan De La Peña,7676, ,0101000020E6640000C07493B8546225410CB5A6152EFD5141,25830,974 35 63 70,Colegio Público,http://www.educa.aragon.es/cpsjphue,700714.36,4715704.34
22700,700911,4715426,"Avda. Perimetral, 2",0,22002703,42.56510306,Jaca,-0.55234247,direpjaca@escolapios.es,Concertado,Escuelas Pías,7677, ,0101000020E66400003870CE28DE632541EA73B575E8FC5141,25830,974 36 03 92,Centro Privado con varias Enseñanzas de Régimen General, ,700911.08,4715425.84
22700,701056,4715706,"Cl. Coso, 4",0,22002715,42.56759015,Jaca,-0.55048078,sec.smariaj@planalfa.es,Concertado,Santa María,7678, ,0101000020E6640000E80434D1FF642541E61DA79C2EFD5141,25830,974 35 68 50,Centro Privado con varias Enseñanzas de Régimen General, ,701055.91,4715706.45
22250,722015,4627613,"Avda. Zaragoza-Monzón, 60",0,22002843,41.76931606,Lanaja,-0.32896263,cralanaja@aragon.es,Público,C.R.A. Monegros Norte,7679, ,0101000020E664000058EC2F9BBE08264122DBF92E27A75141,25830,974 57 42 45,Colegio Público,http://cramonor.educa.aragon.es,722015.30,4627612.73
22400,764805,4644957,"Avda. Goya, 2",0,22003215,41.91217650,Monzon,0.19288372,cpjcmonzon@educa.aragon.es,Público,Joaquín Costa,7680, ,0101000020E6640000E8F21F920A572741DA1B7C2D17B85141,25830,974 40 08 19,Colegio Público,www.colegiojoaquincosta.es,764805.29,4644956.71
50740,698034,4598206,"Cl. Agustina De Aragón, 1",0,50002275,41.51101711,Fuentes De Ebro,-0.62695461,cpgsfuentes@educa.aragon.es,Público,Luis García Saínz,7681, ,0101000020E664000040BD52B6644D2541FA0FE98B6F8A5141,25830,976 16 01 01,Colegio Público,http://cpgsfuen.educa.aragon.es,698034.36,4598206.19
50650,639706,4636275,"Cl. Miguel Servet, S/N",976864845,50002329,41.86606348,Gallur,-1.31663775,cpgallur@educa.aragon.es,Público,María Domínguez,7682, ,0101000020E6640000088A1F83B4852341744694DE9CAF5141,25830,976 86 48 45,Colegio Público,www.educa.aragob.es/cpgallur,639706.26,4636275.48
50150,660560,4563821,"Cl. Revés, 43",0,50002433,41.20984857,Herrera De Los Navarros,-1.08483808,cpherrera@aragon.es,Público,San Jorge,7683, ,0101000020E6640000803F353EA0282441A4DFBE3ADB685141,25830,976 14 31 06,Colegio Público,http://cpherrer.educa.aragon.es/,660560.12,4563820.92
50250,614595,4599600,"Cl. San Babil, S/N",0,50002457,41.53985109,Illueca,-1.62616272,cpbxillueca@educa.aragon.es,Público,Benedicto XIII,7684, ,0101000020E6640000C005129486C1224108CE19E9CB8B5141,25830,976 82 02 27,Colegio Público,www.educa.aragon.es/cillueca,614595.29,4599599.64
50710,763406,4557242,"Pza. De Zaragoza, 38",976638065,50002810,41.12376149,Maella,0.13766592,cpmaella@educa.aragon.es,Público,Virgen Del Portal,7685, ,0101000020E664000078E09C911C4C2741E4F21F7E6E625141,25830,976 63 80 65,Colegio Público,e-ducativa.catedu.es/50002810/sitio,763406.28,4557241.97
50170,776347,4585717,"Ctra. De Fraga, S/N",0,50003048,41.37553303,Mequinenza,0.30446750,cpmequinenza@educa.aragon.es,Público,María Quintana,7686, ,0101000020E6640000F8C2640A36B12741560E2D2E3D7E5141,25830,974 46 42 70,Colegio Público, ,776347.02,4585716.72
50530,632976,4643632,"Camino de Mallén, 40",0,50003504,41.93345531,Novillas,-1.39603831,cpnovillas@aragon.es,Público,San Nicasio,7687, ,0101000020E6640000907EFBFA2051234140C6DCF9CBB65141,25830,976 86 11 97,Colegio Público,http://cpnovill.educa.aragon.es/,632976.49,4643631.90
50195,684659,4609873,"Avda. Santa  Ana, 1",0,50003711,41.61922033,Pastriz,-0.78352034,cppastriz@aragon.es,Público,La Portalada,7688,4701607XM8140S,0101000020E664000040355EBAE6E4244188D2DE40D4955141,25830,976 58 30 49,Colegio Público, ,684659.36,4609873.01
50690,648147,4627644,"Cl. Progreso, 6",0,50003735,41.78682336,Pedrola,-1.21713843,cppedrola@educa.aragon.es,Público,Cervantes,7689, ,0101000020E664000068226CB8A5C723416C787A052FA75141,25830,976 61 52 81,Colegio Público,www.educa.aragon.es/cpedrola,648146.86,4627644.09
50750,706433,4596186,"Cl. Rosales, 2",0,50003838,41.49071755,Pina De Ebro,-0.52709912,smesperanzape@planalfa.es,Concertado,Santa María De La Esperanza,7690, ,0101000020E6640000604BC827018F2541DC46038076885141,25830,976 16 50 47,Centro Privado con varias Enseñanzas de Régimen General, ,706432.58,4596186.00
22600,716751,4708950,"Cl. Derechos Humanos, 5",0,22004891,42.50256439,Sabiñanigo,-0.36201486,iesbasabinanigo@educa.aragon.es,Público,Biello Aragón,7691, ,0101000020E664000068BC74F39DDF254130DD249295F65141,25830,974 48 26 82,Instituto de Educación Secundaria (IES),http://iesbasab.educa.aragon.es,716750.98,4708950.28
22002,714591,4667781,"Cl. Alfonso De Aragón, 12",0,22004955,42.13277472,Huesca,-0.40356361,cpeahuesca@educa.aragon.es,Público,Miguel Hernández,7692, ,0101000020E664000058522720BDCE25416EC5FE4E61CE5141,25830,974 24 15 04,Centro Público de Educación de Personas Adultas (Presenc,http://cpeahues.educa.aragon.es,714590.56,4667781.23
22004,714690,4668650,"Cl. Santo Cristo De Los Milagros, 21",0,22005145,42.14056089,Huesca,-0.40203880,contacto.escueladeartedehuesca@gmail.com,Público,Escuela De Arte,7693, ,0101000020E664000028287E8C84CF2541AE47E16A3ACF5141,25830,974 24 06 44,Escuela de Arte,http://eayohues.educa.aragon.es,714690.27,4668649.67
22500,773363,4638516,"Pza. De España, 1",0,22005364,41.85134931,Binefar,0.29293095,Aytobinefar@Aragob.Es,Público,Escuela  De Música,7694, ,0101000020E664000050DA1B7CE699274138F8C208CDB15141,25830,974 42 81 00,Escuela Pública de Música y/o Danza, ,773363.24,4638516.14
22600,715977,4710836,"Avda. Serrablo, 13",0,22005443,42.51974711,Sabiñanigo,-0.37071858,cpmsabinanigo@educa.aragon.es,Público,Conservatorio Elemental De Música,7695, ,0101000020E664000030D49A2691D925411461C30B6DF85141,25830,974 48 28 34,Conservatorio de Música o Danza,http://cpmsabi.educa.aragon.es,715976.58,4710836.18
22400,765075,4644643,"Pza. Sto. Domingo, 6",0,22005480,41.90926342,Monzon,0.19598697,cpeamonzon@educa.aragon.es,Público,Cinca Medio,7696, ,0101000020E6640000E02D9080255927416E1283B4C8B75141,25830,974 41 62 90,Centro Público de Educación de Personas Adultas (Presenc,http://cpeamonz.educa.aragon.es,765074.75,4644642.82
22700,701779,4716772,"Cl Monte Perdido, 1",0,22005492,42.57698836,Jaca,-0.54130491,cpeajaca@educa.aragon.es,Público,Jacetania,7697, ,0101000020E6640000E8FBA991A56A254142F163FC38FE5141,25830,974 36 28 75,Centro Público de Educación de Personas Adultas (Presenc,http://cepajaca.educa.aragon.es,701778.78,4716771.94
22430,775540,4676176,"Pza. Mayor, 3",0,22005509,42.18921387,Graus,0.33678017,cpeagraus@educa.aragon.es,Público,Ribagorza,7698, ,0101000020E664000050158C0AE7AA2741DC68001794D65141,25830,974 54 05 28,Centro Público de Educación de Personas Adultas (Presenc, ,775539.52,4676176.36
22340,752483,4703664,"Cl. Samper,  1",0,22005558,42.44420044,Boltaña,0.06996924,cpeaboltana@educa.aragon.es,Público,Sobrarbe,7699, ,0101000020E6640000885AD33CC5F62641ACADD81B6CF15141,25830,974 50 23 22,Centro Público de Educación de Personas Adultas (Presenc, ,752482.62,4703664.44
22600,716382,4710802,"Cl. Pedro Sesé, 2",0,22005561,42.51932452,Sabiñanigo,-0.36580228,cpeasabinanigo@educa.aragon.es,Público,Alto Gállego,7700, ,0101000020E6640000D0DEE0CBBBDC2541166A4D7364F85141,25830,974 48 25 32,Centro Público de Educación de Personas Adultas (Presenc,http://cpeasabi.educa.aragon.es,716381.90,4710801.80
22200,736118,4630266,"Cl. El Carmen, 13",0,22005583,41.78911527,Sariñena,-0.15844162,cpeasarinena@educa.aragon.es,Público,Monegros,7701, ,0101000020E6640000F0D24D02EB76264160984C75BEA95141,25830,974 57 43 98,Centro Público de Educación de Personas Adultas (Presenc,http://cpeasari.educa.aragon.es,736117.50,4630265.83
22400,764551,4645426,"Avda. De Fonz,  1",0,22005595,41.91647891,Monzon,0.19003721,eoimonzon@educa.aragon.es,Público,Ignacio Luzán,7702, ,0101000020E664000078029AC80E5527412A3A926B8CB85141,25830,974 41 58 40,Escuela Oficial de Idiomas (EOI),http://eoimonzo.educa.aragon.es,764551.39,4645425.68
22130,743145,4646203,"Cl. Balmes, 16",0,22005698,41.93034709,Peralta De Alcofea,-0.06742379,craperalta@aragon.es,Público,C.R.A. A Redolada,7703, ,0101000020E6640000A813D064D2AD2641D200DEAE4EB95141,25830,974 30 07 43,Colegio Público,http://craredol.educa.aragon.es,743145.20,4646202.73
50018,675984,4615584,"Cl. Averroes, 14",0,50011586,41.67258142,Zaragoza,-0.88590616, ,Privado,Fantasía,7704, ,0101000020E6640000A05E292B1FA124415C8FC2E1679B5141,25830,976 73 26 40,Centro Privado de Educación Infantil, ,675983.58,4615583.53
50013,677184,4611857,"Cl. Pablo Remacha, 13",0,50011604,41.63877608,Zaragoza,-0.87259500,Cdroma@Able.Es,Privado,Cittá Di Roma,7705, ,0101000020E6640000483789C180AA244134333357C4975141,25830,976 59 71 36,Centro Privado de Música o Danza, ,677184.38,4611857.36
50010,674874,4613073,"Cami. De La Mosquetera, 45",0,50011616,41.65023206,Zaragoza,-0.89996576,Alfred2001@Terra.Es,Privado,Alfred,7706, ,0101000020E6640000385EBA497398244150FC185BF4985141,25830,976 32 21 09,Centro Privado de Formación Profesional Específica, ,674873.64,4613073.42
50014,677790,4613820,"Cl. Pedro Arnal Cavero, 30",0,50011628,41.65630712,Zaragoza,-0.86474325, ,Privado,Tic Tac,7707, ,0101000020E6640000B837F8423CAF24412E6EA301AF995141,25830,976 28 54 99,Centro Privado de Educación Infantil, ,677790.13,4613820.03
50007,676098,4613485,"Cl. Via Pignatelli, 11",0,50011631,41.65366996,Zaragoza,-0.88514831, ,Privado,Academia Pignatelli,7708, ,0101000020E6640000B896906F04A22441721B0D545B995141,25830,976 38 43 97,Centro Privado de Formación Profesional Específica, ,676098.22,4613485.31
50009,674291,4611853,"Cl. Andador De Los Hudies, 6-E, Bajos",0,50011641,41.63937149,Zaragoza,-0.90731545, ,Privado,Angel Mingote,7709, ,0101000020E6640000805149BDE5932441CEF7532BC3975141,25830,976 56 84 84,Centro Privado de Música o Danza, ,674290.87,4611852.68
50710,763362,4557254,"Cl. Zaragoza,  50",0,50011665,41.12388539,Maella,0.13714480,iesmaella@educa.aragon.es,Público,Sección  Del I.E.S Mar De Aragón,7710, ,0101000020E66400005817B711C44B2741569FAB8971625141,25830,976 63 88 00,Instituto de Educación Secundaria (IES), ,763362.03,4557254.15
50170,776347,4585717,"Ctra. De Fraga,  S/N",0,50011689,41.37553303,Mequinenza,0.30446750,iesmequinenza@educa.aragon.es,Público,Sección Del I.E.S. Bajo Cinca,7711, ,0101000020E6640000F8C2640A36B12741560E2D2E3D7E5141,25830,974 46 50 73,Instituto de Educación Secundaria (IES),http://iesmequi.educa.aragon.es,776347.02,4585716.72
50016,680650,4615301,"Cl. La Iglesia, 30",0,50005781,41.66899079,Zaragoza,-0.82997621,laconcepcionz@planalfa.es,Concertado,La Concepción,7712, ,0101000020E6640000A03C2C5493C5244156302A29219B5141,25830,976 57 03 22,Centro Privado con varias Enseñanzas de Régimen General, ,680649.66,4615300.64
50011,669383,4616074,"Ctra. De Logroño, Km.7,8",0,50005823,41.67842857,Venta Del Olivar,-0.96501334,caragon@cece.es,Concertado,Condes De Aragón,7713, ,0101000020E6640000608FC2958D6D2441A69BC488E29B5141,25830,976 33 03 00,Centro Privado con varias Enseñanzas de Régimen General,www.condesdearagon.com,669382.79,4616074.14
50162,685743,4617314,"Cl. Calera, 30",976589714,50005872,41.68593929,Villamayor,-0.76821692,cpmcazaragoza@educa.aragon.es,Público,Mariano Castillo,7714, ,0101000020E664000058B1BF0C5DED244186A75776189D5141,25830,976 58 97 14,Colegio Público,http://cpmcazar.educa.aragon.es,685742.52,4617313.85
50017,673942,4613537,"Cl. Castillo De Palomar, S/N",0,50005896,41.65460545,Zaragoza,-0.91100736,cpamazaragoza@educa.aragon.es,Público,Ana Mayayo,7715, ,0101000020E6640000F86C56BD2C91244190A0F82968995141,25830,976 33 27 97,Colegio Público,http://cpamazar.educa.aragon.es,673942.37,4613536.66
50017,674540,4612812,"Cl. Delicias,  90",0,50005902,41.64794927,Zaragoza,-0.90404660,cpamanzaragoza@educa.aragon.es,Público,Andrés Manjón,7716, ,0101000020E6640000D03B4EF1D7952441C2F528ECB2985141,25830,976 33 17 28,Colegio Público,http://cpamanza.educa.aragon.es,674539.97,4612811.69
50009,674761,4612381,"Cl. San Juan Bosco,  7",0,50005914,41.64402867,Zaragoza,-0.90152214,cpryozaragoza@educa.aragon.es,Público,Recarte Y Ornat,7717, ,0101000020E6640000C0EC9E9C919724414082E25F47985141,25830,976 35 23 38,Colegio Público,http://cpryozar.educa.aragon.es/,674760.81,4612381.50
50015,677046,4614107,"Cl. Sobrarbe, 8",0,50005926,41.65905827,Zaragoza,-0.87359253,Cpcdozaragoza@educa.aragon.es,Público,Cándido Domingo,7718, ,0101000020E6640000186A4D736BA924414CC807D1F6995141,25830,976 29 38 12,Colegio Público,ww.educa.aragob/cpdozar,677045.73,4614107.27
50007,675733,4610516,"Cl. Mesones De Isuela,  S/N",976275628,50005951,41.62702077,Zaragoza,-0.89040130,cpdmizaragoza@educa.aragon.es,Público,Domingo Miral,7719, ,0101000020E664000040E8D96C2A9F2441B07268ED74965141,25830,976 27 56 28,Colegio Público,http://cpdmizar.educa.aragon.es,675733.21,4610515.71
50011,672563,4613107,"Cl San Vicente Ferrer, 2",0,50005963,41.65104174,Zaragoza,-0.92768279,cpfeczaragoza@educa.aragon.es,Público,Fernando El Católico,7720, ,0101000020E664000088C954A166862441DA3D79DCFC985141,25830,976 33 20 32,Colegio Público,www.educa.aragob.es/cpfeczar/fernandoelcatolico.htm,672563.32,4613107.44
50001,676708,4613033,"Pza. de los Sitios, 4",0,50005975,41.64946054,Zaragoza,-0.87796395,cpgymzaragoza@educa.aragon.es,Público,Gascón Y Marín,7721, ,0101000020E6640000703D0AF7C7A62441F0F44A29EA985141,25830,976 23 19 60,Colegio Público,http://cpgymzar.educa.aragon.es,676707.98,4613032.65
50003,674883,4614604,"Avda. De La Almozara, S/N",0,50006001,41.66400430,Zaragoza,-0.89941156, cpjzczaragoza@educa.aragon.es,Público,Jerónimo Zurita Y Castro,7722,5049714XM7154E,0101000020E6640000E826310885982441B09465EC729A5141,25830,976 40 46 08,Colegio Público,http://cpjzczar.educa.aragon.es,674882.52,4614603.69
50004,675536,4613248,"P.º María Agustín,  41",0,50006013,41.65165356,Zaragoza,-0.89196921,cpjcozaragoza@educa.aragon.es,Público,Joaquín Costa,7723, ,0101000020E6640000C84B37699F9D2441865AD3E01F995141,25830,976 23 55 65,Colegio Público,Http://cpjcozar.educa.aragon.es,675535.71,4613247.51
50010,674365,4612746,"Cl. Duquesa Villahermosa, 58",0,50006025,41.64739819,Zaragoza,-0.90616079,cpjmmzaragoza@educa.aragon.es,Público,José María Mir,7724, ,0101000020E66400004082E2C77A94244112143F8EA2985141,25830,976 33 17 97,Colegio Público,www.cpjmmzar.educa.aragon.es,674365.39,4612746.22
50014,678314,4614264,"Cl. Balbino Orensanz, 3-5",0,50006037,41.66018345,Zaragoza,-0.85832187,cpljozaragoza@educa.aragon.es,Público,La Jota,7725,8444201XM7184C,0101000020E6640000D0F7534354B32441341136EC1D9A5141,25830,976 47 41 29,Colegio Público,http:\\centros4.pntic.mec.es\cp.la.jota,678314.13,4614263.69
50002,677786,4612815,"Cl. Leopoldo Romeo, 24",0,50006049,41.64726385,Zaragoza,-0.86509258,cpjsizaragoza@educa.aragon.es,Público,Julián Sanz Ibáñez,7726, ,0101000020E6640000E861A1D633AF244128ED0DCEB3985141,25830,976 42 58 70,Colegio Público,http://cpjsizar.educa.aragon.es,677785.92,4612815.22
50003,676025,4613606,"Cl. Conde De Aranda, 2",0,50006751,41.65477436,Zaragoza,-0.88599589,ep.epz1@escolapios.es,Concertado,Escuelas Pías,7727, ,0101000020E6640000D809684271A12441E09C118D79995141,25830,976 44 02 22,Centro Privado con varias Enseñanzas de Régimen General,www.escuelaspias-zaragoza.es,676024.63,4613606.20
50007,677327,4611276,"Cami. De Miraflores, 23",0,50006761,41.63351462,Zaragoza,-0.87105625,epsengraciaz@planalfa.es,Concertado,Escuelas Pías De Santa Engracia,7728, ,0101000020E664000078E926F19DAB2441423EE81533975141,25830,976 37 10 68,Centro Privado con varias Enseñanzas de Régimen General,www.escolapiasmiraflores.org,677326.97,4611276.34
50017,673591,4612667,"Cl. Enrique De Ossó, 2-4",0,50006797,41.64685167,Zaragoza,-0.91548224,Eossoz@Planalfa.Es,Concertado,Padre Enrique De Ossó,7729, ,0101000020E664000058D3BC236D8E2441F2D24DAE8E985141,25830,976 33 18 38,Centro Privado con varias Enseñanzas de Régimen General, ,673590.57,4612666.72
50011,673209,4613124,"Vía Hispanidad, 91-93",0,50006803,41.65105499,Zaragoza,-0.91992698,minmaculadaz@planalfa.es,Concertado,María Inmaculada,7730, ,0101000020E6640000188C4A4A728B244126E4831E01995141,25830,976 33 17 64,Centro Privado con varias Enseñanzas de Régimen General, ,673209.15,4613124.48
50009,674890,4611058,"Cl. Cardenal Gomá, 13",0,50010272,41.63208702,Zaragoza,-0.90036278,colegio@jmes.es,Concertado,El Salvador,7731, ,0101000020E66400002085EB5193982441DA1B7C7DFC965141,25830,976 35 34 00,Centro Privado con varias Enseñanzas de Régimen General,"www.jmes,es",674889.66,4611057.96
50180,664526,4619821,"Cl. Rosalía De Castro, 40",976774442,50010296,41.71317501,Utebo,-1.02229893,cpieutebo@educa.aragon.es,Público,Infanta Elena,7732, ,0101000020E66400003870CE889B472441645DDC3E8B9F5141,25830,976 77 44 42,Colegio Público,cpieuteb.educa.aragon.es,664525.77,4619820.98
50002,678062,4612282,"Cl. Tomás Higuera, 60",0,50010302,41.64240606,Zaragoza,-0.86193754,iesfgczaragoza@educa.aragon.es,Público,Francisco Grande Covián,7733, ,0101000020E6640000907EFB1A5CB124416E3480972E985141,25830,976 42 23 08,Instituto de Educación Secundaria (IES),http://iesfgcza.educa.aragon.es/,678062.05,4612282.37
50001,676679,4613099,"Cl. San Miguel, 32",0,50010326,41.65006419,Zaragoza,-0.87829236,csmzaragoza@educa.aragon.es,Público,Conservatorio Superior De Música,7734, ,0101000020E6640000001973F78DA62441A245B6BFFA985141,25830,976 22 26 32,Conservatorio de Música o Danza,http://www.consersup.com,676678.98,4613099.00
